~VERSION INFORMATION 
VERS  .    2.0                                     :CWLS Log ASCII Standard - VERSION 2.0
WRAP  .    NO                                      :One Line per Depth step
PROD  .    Schlumberger Technology Corp.           :LAS Producer
PROG  .    Horizon LASWriter 7.3.92069.3100        :LAS Program name and version
SOURCE.    1A-Log[6]/Up                            :Run&Pass Information
CREA  .    04/30/2018                              :LAS Creation date {MM/DD/YYYY}
#--------------------------------------------------
~WELL INFORMATION 
#MNEM           .UNIT                      DATA            :DESCRIPTION
#----            ------          --------------            -----------------------------
STRT            .m                    979.93200            :START DEPTH
STOP            .m                   3037.94160            :STOP DEPTH
STEP            .m                       0.1524            :STEP
NULL            .                       -999.25            :NULL VALUE
COMP            .                PETROLEOS MEXICANOS       :COMPANY
WELL            .                  MADREFIL 131            :WELL NAME
FLD             .                      MADREFIL            :FIELD NAME
RIGN            .                                          :Rig Name
RIGTYP          .                                          :Rig Type
SON             .                                          :Service Order Number
SRVC            .                  Schlumberger            :SERVICE COMPANY
DATE            .                    04/30/2018            :LOG DATE(Composite Date for Composite LAP) (MM/DD/YYYY)
CLAB            .                       County:            :County Label
CNTY            .                      VERACRUZ            :COUNTY
SLAB            .                       Equipo:            :State/Province Label
STAT            .                      ICMA-879            :STATE or PROVINCE
PROV            .                      ICMA-879            :STATE or PROVINCE
CTRY            .                                          :COUNTRY
CONT_REGION     .                                          :Continent Region
SECT            .                                          :Section
TOWN            .                                          :Township
RANG            .                                          :Range
API             .                                          :API NUMBER
UWI             .                                          :UNIQUE WELL ID
LUL             .                                          :Logging Unit Location
LUN             .                                          :Logging Unit Number
LOC             .                PERA MADREFIL-61          :FIELD LOCATION
FL1             .                                          :Field Location Line 1
FL2             .                                          :Field Location Line 2
LATI            .deg             18° 10' 19.542" N         :LATITUDE
LONG            .deg             93° 20' 3.618" W          :LONGITUDE
PDAT            .                            GL            :Local Permanent Datum
LMF             .                            DF            :Logging Measured From
APD             .m                        12.00            :Elevation of Depth Reference (LMF) Above Permanent Datum
EPD             .m                        20.01            :Elevation of Permanent Datum (PDAT) above Mean Sea Level
EKB             .m                      -999.25            :Elevation of Kelly Bushing Above Permanent Datum
EDF             .m                        12.00            :Elevation of Drill Floor Above Permanent Datum
EGL             .m                         0.00            :Elevation of Ground Level Above Permanent Datum
ECF             .m                      -999.25            :Elevation of Casing Flange above Permanent Datum
#--------------------------------------------------
~CURVE INFORMATION
#MNEM           .UNIT                  API CODE            :DESCRIPTION
#----            ------          --------------            -----------------------------
DEPT            .m                                         :                                                        Depth Index
GR              .gAPI                                      :        (SGT-N)                 (6in)                   Calibrated Gamma Ray
BS              .in                                        :(RT)    (Borehole)              (6in)                   Bit Size
TENS            .lbf                                       :        (WLWorkflow)            (6in)                   Cable Tension
SP              .mV                                        :        (AIT-M)                 (6in)                   Spontaneous Potential
AT90            .ohm.m                                     :        (AIT-M)                 (3in)                   Array Induction Two Foot Resistivity A90
AT20            .ohm.m                                     :        (AIT-M)                 (3in)                   Array Induction Two Foot Resistivity A20
AT10            .ohm.m                                     :        (AIT-M)                 (3in)                   Array Induction Two Foot Resistivity A10
TENS            .lbf                                       :        (WLWorkflow)            (1in)                   Cable Tension
AT30            .ohm.m                                     :        (AIT-M)                 (3in)                   Array Induction Two Foot Resistivity A30
AT60            .ohm.m                                     :        (AIT-M)                 (3in)                   Array Induction Two Foot Resistivity A60
HAZIM           .deg                                       :        (GPIT-C[1])             (6in)                   Memorized Hole Azimuth
FCD             .in                                        :(RT)    (Borehole)              (6in)                   Future Casing Diameter
HD2             .in                                        :        (PPC-B)                 (6in)                   Hole Diameter 2
DeviationDEVI   .deg                                       :        (GPIT-C[1])             (6in)                   Memorized Sonde Deviation
HD1             .in                                        :        (PPC-B)                 (6in)                   Hole Diameter 1
ICV             .m3                                        :(RT)    (Borehole)              (6in)                   Integrated Cement Volume
IHV             .m3                                        :(RT)    (Borehole)              (6in)                   Integrated Hole Volume
RB              .deg                                       :        (PPC-B)                 (6in)                   Relative Bearing
RD1             .in                                        :        (PPC-B)                 (6in)                   Radius 1
RD2             .in                                        :        (PPC-B)                 (6in)                   Radius 2
RD3             .in                                        :        (PPC-B)                 (6in)                   Radius 3
RD4             .in                                        :        (PPC-B)                 (6in)                   Radius 4
#-------------------------------------------------------------
#            DEPT           GR           BS         TENS           SP         AT90         AT20         AT10         TENS         AT30         AT60        HAZIM          FCD          HD2 DeviationDEVI          HD1          ICV          IHV           RB          RD1          RD2          RD3          RD4 
#                      (SGT-N)   (Borehole)  (WLWorkflo)      (AIT-M)      (AIT-M)      (AIT-M)      (AIT-M)  (WLWorkflo)      (AIT-M)      (AIT-M)  (GPIT-C[1])   (Borehole)      (PPC-B)  (GPIT-C[1])      (PPC-B)   (Borehole)   (Borehole)      (PPC-B)      (PPC-B)      (PPC-B)      (PPC-B)      (PPC-B) 
#                                      (RT)                                                                                                                              (RT)                                                (RT)         (RT)                                                                  
#                        (6in)        (6in)        (6in)        (6in)        (3in)        (3in)        (3in)        (1in)        (3in)        (3in)        (6in)        (6in)        (6in)        (6in)        (6in)        (6in)        (6in)        (6in)        (6in)        (6in)        (6in)        (6in) 
~ASCII
# ...
       2757.52560     66.26129     17.50000   3370.66614     76.92361      1.21804      1.15509      1.16450   3382.99916      1.16528      1.18626    159.32920     13.37500     18.65068     12.82360     18.48255     20.29546     44.37391    193.52110      9.04831      9.46523      9.43424      9.18544
       2757.67800     69.76575     17.50000   3357.11016     75.16666      1.20982      1.14767      1.15738   3357.00001      1.15793      1.18252    159.32810     13.37500     18.65068     12.82279     18.48255     20.28264     44.34728    193.52110      9.04831      9.46523      9.43424      9.18544
       2757.83040     70.08925     17.50000   3344.88955     79.55469      1.21106      1.15612      1.16338   3350.99986      1.16808      1.19429    159.33670     13.37500     18.65068     12.82588     18.48255     20.26983     44.32066    193.18310      9.04831      9.46523      9.43424      9.18544
       2757.98280     70.89797     17.50000   3374.12595     75.67361      1.21648      1.16412      1.16860   3389.99971      1.17762      1.20287    159.33410     13.37500     18.65068     12.83364     18.42428     20.25702     44.29403    193.52110      9.01953      9.46523      9.40475      9.18544
       2758.13520     62.64900     17.50000   3359.66624     78.66666      1.21757      1.16684      1.17763   3365.99911      1.17932      1.20233    159.30910     13.37500     18.68060     12.83879     18.45376     20.24429     44.26749    193.52110      9.01953      9.49515      9.43424      9.18544
       2758.28760     54.56178     17.50000   3366.88935     76.00000      1.22861      1.17243      1.18837   3382.99916      1.18568      1.20807    159.30960     13.37500     18.65068     12.84265     18.42496     20.23147     44.24086    193.52110      8.99073      9.46523      9.43424      9.18544
       2758.44000     56.44881     17.50000   3358.33313     74.87500      1.25808      1.20057      1.21724   3372.99966      1.21667      1.23439    159.29870     13.37500     18.65068     12.84285     18.48255     20.21873     44.21431    193.52110      9.04831      9.46523      9.43424      9.18544
       2758.59240     65.50649     17.50000   3345.22227     76.18750      1.29537      1.22623      1.24776   3344.99971      1.24471      1.27027    159.29110     13.37500     18.68060     12.84314     18.42496     20.20592     44.18768    193.52110      8.99073      9.49515      9.43424      9.18544
       2758.74480     69.55010     17.50000   3353.88865     81.92969      1.28871      1.21938      1.23695   3360.50028      1.23574      1.25899    159.29700     13.37500     18.65068     12.83823     18.51202     20.19315     44.16109    193.52110      9.04831      9.46523      9.46371      9.18544
       2758.89720     68.47181     17.50000   3346.24964     80.59722      1.27263      1.21009      1.22994   3346.00011      1.22381      1.24722    159.29490     13.37500     18.65068     12.82926     18.51202     20.18029     44.13442    193.52110      9.04831      9.46523      9.46371      9.18544
       2759.04960     66.93523     17.50000   3351.55514     80.34722      1.27211      1.20497      1.21835   3346.00011      1.22266      1.24727    159.30800     13.37500     18.68060     12.82874     18.51202     20.16743     44.10775    193.18310      9.04831      9.49515      9.46371      9.18544
       2759.20200     63.70034     17.50000   3353.77850     81.62500      1.26333      1.19489      1.20271   3358.00041      1.21152      1.23735    159.29750     13.37500     18.68060     12.82759     18.51269     20.15453     44.08103    193.18310      9.01953      9.49515      9.49317      9.18544
       2759.35440     62.62205     17.50000   3359.22337     79.91406      1.25429      1.18208      1.19243   3343.99931      1.19638      1.23043    159.27050     13.37500     18.65068     12.83363     18.57092     20.14163     44.05431    193.19550      9.04831      9.46523      9.52261      9.18544
       2759.50680     60.38459     17.50000   3380.00021     81.58334      1.22576      1.16774      1.17815   3382.99916      1.18174      1.20630    159.27340     13.37500     18.68060     12.83947     18.42496     20.12868     44.02756    193.18310      8.99073      9.49515      9.43424      9.18544
       2759.65920     60.65416     17.50000   3372.44438     80.89584      1.23454      1.17256      1.18688   3371.00111      1.18908      1.21509    159.22000     13.37500     18.68060     12.85682     18.48255     20.11591     44.00097    193.18310      9.04831      9.49515      9.43424      9.18544
       2759.81160     57.41927     17.50000   3380.22277     73.63194      1.24431      1.18381      1.19681   3383.99956      1.19816      1.22434    159.19540     13.37500     18.65068     12.86769     18.48255     20.10305     43.97429    193.18310      9.04831      9.46523      9.43424      9.18544
       2759.96400     54.31916     17.50000   3387.22332     73.90972      1.25715      1.19083      1.20483   3399.99921      1.20778      1.23641    159.19710     13.37500     18.65068     12.87207     18.48255     20.09024     43.94767    193.18310      9.04831      9.46523      9.43424      9.18544
       2760.11640     57.55405     17.50000   3375.22302     78.06944      1.26321      1.19652      1.20986   3381.00061      1.21285      1.23943    159.18670     13.37500     18.70918     12.87290     18.42496     20.07742     43.92104    193.18310      8.99073      9.49515      9.43424      9.21403
       2760.26880     64.02383     17.50000   3381.33333     75.00781      1.26712      1.19470      1.21018   3393.00091      1.21417      1.24089    159.18830     13.37500     18.65068     12.87430     18.48255     20.06461     43.89441    193.18310      9.04831      9.46523      9.43424      9.18544
       2760.42120     66.04564     17.50000   3380.87472     73.00000      1.26739      1.19494      1.20909   3388.99931      1.21555      1.24119    159.19060     13.37500     18.65068     12.86977     18.48255     20.05179     43.86778    193.18310      9.04831      9.46523      9.43424      9.18544
       2760.57360     66.58479     17.50000   3365.88895     75.95139      1.26409      1.19230      1.20491   3366.99951      1.21036      1.23586    159.17840     13.37500     18.68060     12.85771     18.42428     20.03898     43.84116    193.18310      9.01953      9.49515      9.40475      9.18544
       2760.72600     59.76456     17.50000   3370.55599     76.81944      1.25389      1.17988      1.18977   3376.99901      1.20006      1.22501    159.15830     13.37500     18.68060     12.84931     18.42496     20.02621     43.81457    193.18310      8.99073      9.49515      9.43424      9.18544
       2760.87840     59.49499     17.50000   3362.55504     78.41666      1.24058      1.16684      1.18051   3371.99926      1.18654      1.21480    159.13940     13.37500     18.65068     12.84285     18.45376     20.01343     43.78798    193.18310      9.01953      9.46523      9.43424      9.18544
       2761.03080     58.14712     17.50000   3368.77775     74.96875      1.23997      1.16895      1.17676   3376.00086      1.18729      1.21504    159.11960     13.37500     18.71050     12.84025     18.42428     20.00066     43.76139    193.18310      9.01953      9.52506      9.40475      9.18544
       2761.18320     62.27160     17.50000   3369.62528     81.45139      1.24114      1.16732      1.16799   3367.50083      1.18707      1.21611    159.12220     13.37500     18.73775     12.83595     18.45376     19.98784     43.73476    193.18310      9.01953      9.49515      9.43424      9.24259
       2761.33560     61.46288     17.50000   3352.22282     82.62500      1.23883      1.16428      1.16587   3339.50088      1.18481      1.21533    159.11320     13.37500     18.73908     12.83354     18.39478     19.97494     43.70805    193.18310      9.01953      9.52506      9.37525      9.21403
       2761.48800     61.46288     17.50000   3355.44433     82.85416      1.23512      1.16180      1.16579   3350.99986      1.18212      1.21068    159.18150     13.37500     18.68060     12.83124     18.59902     19.96213     43.68142    192.84510      9.10585      9.49515      9.49317      9.18544
