~VERSION INFORMATION 
VERS  .    2.0                                     :CWLS Log ASCII Standard - VERSION 2.0
WRAP  .    NO                                      :One Line per Depth step
PROD  .    Schlumberger Technology Corp.           :LAS Producer
PROG  .    Horizon LASWriter 7.3.92069.3100        :LAS Program name and version
SOURCE.    1A-Log[6]/Up                            :Run&Pass Information
CREA  .    04/30/2018                              :LAS Creation date {MM/DD/YYYY}
#--------------------------------------------------
~WELL INFORMATION 
#MNEM           .UNIT                      DATA            :DESCRIPTION
#----            ------          --------------            -----------------------------
STRT            .m                    979.93200            :START DEPTH
STOP            .m                   3037.94160            :STOP DEPTH
STEP            .m                       0.1524            :STEP
NULL            .                       -999.25            :NULL VALUE
COMP            .                PETROLEOS MEXICANOS       :COMPANY
WELL            .                  MADREFIL 131            :WELL NAME
FLD             .                      MADREFIL            :FIELD NAME
RIGN            .                                          :Rig Name
RIGTYP          .                                          :Rig Type
SON             .                                          :Service Order Number
SRVC            .                  Schlumberger            :SERVICE COMPANY
DATE            .                    04/30/2018            :LOG DATE(Composite Date for Composite LAP) (MM/DD/YYYY)
CLAB            .                       County:            :County Label
CNTY            .                      VERACRUZ            :COUNTY
SLAB            .                       Equipo:            :State/Province Label
STAT            .                      ICMA-879            :STATE or PROVINCE
PROV            .                      ICMA-879            :STATE or PROVINCE
CTRY            .                                          :COUNTRY
CONT_REGION     .                                          :Continent Region
SECT            .                                          :Section
TOWN            .                                          :Township
RANG            .                                          :Range
API             .                                          :API NUMBER
UWI             .                                          :UNIQUE WELL ID
LUL             .                                          :Logging Unit Location
LUN             .                                          :Logging Unit Number
LOC             .                PERA MADREFIL-61          :FIELD LOCATION
FL1             .                                          :Field Location Line 1
FL2             .                                          :Field Location Line 2
LATI            .deg             18° 10' 19.542" N         :LATITUDE
LONG            .deg             93° 20' 3.618" W          :LONGITUDE
PDAT            .                            GL            :Local Permanent Datum
LMF             .                            DF            :Logging Measured From
APD             .m                        12.00            :Elevation of Depth Reference (LMF) Above Permanent Datum
EPD             .m                        20.01            :Elevation of Permanent Datum (PDAT) above Mean Sea Level
EKB             .m                      -999.25            :Elevation of Kelly Bushing Above Permanent Datum
EDF             .m                        12.00            :Elevation of Drill Floor Above Permanent Datum
EGL             .m                         0.00            :Elevation of Ground Level Above Permanent Datum
ECF             .m                      -999.25            :Elevation of Casing Flange above Permanent Datum
#--------------------------------------------------
~CURVE INFORMATION
#MNEM           .UNIT                  API CODE            :DESCRIPTION
#----            ------          --------------            -----------------------------
DEPT            .m                                         :                                                        Depth Index
GR              .gAPI                                      :        (SGT-N)                 (6in)                   Calibrated Gamma Ray
BS              .in                                        :(RT)    (Borehole)              (6in)                   Bit Size
TENS            .lbf                                       :        (WLWorkflow)            (6in)                   Cable Tension
SP              .mV                                        :        (AIT-M)                 (6in)                   Spontaneous Potential
AT90            .ohm.m                                     :        (AIT-M)                 (3in)                   Array Induction Two Foot Resistivity A90
AT20            .ohm.m                                     :        (AIT-M)                 (3in)                   Array Induction Two Foot Resistivity A20
AT10            .ohm.m                                     :        (AIT-M)                 (3in)                   Array Induction Two Foot Resistivity A10
TENS            .lbf                                       :        (WLWorkflow)            (1in)                   Cable Tension
AT30            .ohm.m                                     :        (AIT-M)                 (3in)                   Array Induction Two Foot Resistivity A30
AT60            .ohm.m                                     :        (AIT-M)                 (3in)                   Array Induction Two Foot Resistivity A60
HAZIM           .deg                                       :        (GPIT-C[1])             (6in)                   Memorized Hole Azimuth
FCD             .in                                        :(RT)    (Borehole)              (6in)                   Future Casing Diameter
HD2             .in                                        :        (PPC-B)                 (6in)                   Hole Diameter 2
DeviationDEVI   .deg                                       :        (GPIT-C[1])             (6in)                   Memorized Sonde Deviation
HD1             .in                                        :        (PPC-B)                 (6in)                   Hole Diameter 1
ICV             .m3                                        :(RT)    (Borehole)              (6in)                   Integrated Cement Volume
IHV             .m3                                        :(RT)    (Borehole)              (6in)                   Integrated Hole Volume
RB              .deg                                       :        (PPC-B)                 (6in)                   Relative Bearing
RD1             .in                                        :        (PPC-B)                 (6in)                   Radius 1
RD2             .in                                        :        (PPC-B)                 (6in)                   Radius 2
RD3             .in                                        :        (PPC-B)                 (6in)                   Radius 3
RD4             .in                                        :        (PPC-B)                 (6in)                   Radius 4
#-------------------------------------------------------------
#            DEPT           GR           BS         TENS           SP         AT90         AT20         AT10         TENS         AT30         AT60        HAZIM          FCD          HD2 DeviationDEVI          HD1          ICV          IHV           RB          RD1          RD2          RD3          RD4 
#                      (SGT-N)   (Borehole)  (WLWorkflo)      (AIT-M)      (AIT-M)      (AIT-M)      (AIT-M)  (WLWorkflo)      (AIT-M)      (AIT-M)  (GPIT-C[1])   (Borehole)      (PPC-B)  (GPIT-C[1])      (PPC-B)   (Borehole)   (Borehole)      (PPC-B)      (PPC-B)      (PPC-B)      (PPC-B)      (PPC-B) 
#                                      (RT)                                                                                                                              (RT)                                                (RT)         (RT)                                                                  
#                        (6in)        (6in)        (6in)        (6in)        (3in)        (3in)        (3in)        (1in)        (3in)        (3in)        (6in)        (6in)        (6in)        (6in)        (6in)        (6in)        (6in)        (6in)        (6in)        (6in)        (6in)        (6in) 
~ASCII
# ...
       1251.50880     41.78397     17.50000   1931.49999    103.81250      0.38566      0.42402      0.49583   1923.00019      0.40220      0.40712     66.11437     13.37500     22.57247      0.25377     22.85939    178.32800    338.91750    189.11820     11.39385     11.35710     11.46555     11.21537
       1251.66120     43.40142     17.50000   1974.37510    105.65630      0.48027      0.51545      0.65430   1981.00000      0.49509      0.51007     65.83392     13.37500     22.80004      0.24734     23.08456    178.30190    338.87770    189.11820     11.50477     11.47367     11.57978     11.32637
       1251.81360     36.02183     17.50000   1937.77778    107.04170      0.58165      0.61231      0.80972   1940.99997      0.59766      0.62502     65.31914     13.37500     22.94137      0.23961     23.28084    178.27510    338.83700    189.11820     11.61550     11.53187     11.66534     11.40950
       1251.96600     32.51737     17.50000   1909.87517    108.20310      0.69531      0.70529      0.88077   1910.00016      0.70261      0.75309     65.68005     13.37500     23.50815      0.22653     23.70176    178.24770    338.79580    189.11820     11.80884     11.82224     11.89293     11.68591
       1252.11840     33.05651     17.50000   1924.88903    107.54690      0.79316      0.77303      0.90796   1925.00009      0.77538      0.84870     69.23782     13.37500     23.84713      0.19702     24.03636    178.21850    338.75280    189.11820     12.00159     11.99591     12.03478     11.85122
       1252.27080     34.50547     17.50000   1941.12496    106.63190      0.88761      0.82996      0.93551   1941.99992      0.83019      0.95810     71.97024     13.37500     23.95996      0.18061     24.09302    178.18800    338.70850    189.11820     12.00159     12.05371     12.09143     11.90625
       1252.42320     33.96633     17.50000   1953.55577    106.32810      0.95959      0.88838      0.97030   1962.99999      0.88813      1.04904     74.66901     13.37500     24.21417      0.17158     24.31604    178.15730    338.66390    189.11820     12.11146     12.19801     12.20459     12.01616
       1252.57560     31.27059     17.50000   1933.12513    106.90970      0.96710      0.93557      0.98773   1930.00006      0.93057      1.07811     77.06794     13.37500     24.21417      0.16450     24.42743    178.12560    338.61850    189.11820     12.16633     12.19801     12.26110     12.01616
       1252.72800     27.22698     17.50000   1949.00002    107.36720      0.99073      0.94665      0.99109   1950.99992      0.94126      1.08738     78.65163     13.37500     24.43913      0.16355     24.87195    178.09380    338.57280    189.11820     12.38532     12.31324     12.48663     12.12589
       1252.88040     27.76612     17.50000   1958.11107    108.67360      1.00090      0.95592      1.00771   1958.99997      0.95305      1.09286     79.67039     13.37500     24.32530      0.16612     24.95472    178.06060    338.52590    189.11820     12.43995     12.22683     12.51477     12.09847
       1253.03280     30.19229     17.50000   1951.62511    107.21880      1.00024      0.94317      1.01230   1945.99994      0.95219      1.09571     80.29094     13.37500     24.01633      0.17382     24.64732    178.02760    338.47900    189.11820     12.35799     12.08259     12.28933     11.93374
       1253.18520     34.77505     17.50000   1962.11110    106.29860      0.93070      0.89832      0.96293   1961.00009      0.91119      1.00896     80.97764     13.37500     23.48193      0.18142     21.44331    177.99570    338.43330    189.11820     10.69622     11.85121     10.74709     11.63072
       1253.33760     39.08823     17.50000   1953.00004    107.85160      0.89838      0.86024      0.91460   1944.00004      0.89209      0.94095     81.42274     13.37500     22.97046      0.19623     21.35909    177.97060    338.39440    189.11820     10.61200     11.56096     10.74709     11.40950
       1253.49000     39.62738     17.50000   1959.11125    108.03130      0.87318      0.79131      0.80846   1958.99997      0.82042      0.86334     81.15303     13.37500     21.82906      0.20128     21.01675    177.94650    338.35650    189.11820     10.44324     10.94772     10.57351     10.88134
       1253.64240     39.35781     17.50000   1956.87507    107.52780      0.71093      0.66081      0.65894   1961.00009      0.67894      0.69373     82.77801     13.37500     21.22911      0.20357     21.01593    177.92490    338.32110    189.11820     10.47139     10.68337     10.54453     10.54574
       1253.79480     36.76316     17.50000   1930.22240    108.57030      0.54730      0.51746      0.54548   1927.00021      0.52675      0.52487     83.22698     13.37500     21.17164      0.20212     21.24425    177.90430    338.28670    189.11820     10.58390     10.65393     10.66035     10.51770
       1253.94720     33.52827     17.50000   1931.49999    109.03470      0.44214      0.42142      0.45334   1936.99994      0.42426      0.42502     83.68684     13.37500     21.14359      0.19963     21.35743    177.88330    338.25190    189.11820     10.66815     10.65393     10.68928     10.48966
       1254.09960     35.68486     17.50000   1913.44446    109.41410      0.35472      0.35430      0.38121   1913.00001      0.34969      0.34059     83.92530     13.37500     21.25853      0.19518     21.64288    177.86230    338.21700    189.11820     10.78033     10.71278     10.86256     10.54574
       1254.25200     31.54016     17.50000   1931.74998    109.66670      0.31534      0.32361      0.33813   1929.99984      0.31428      0.29868     84.70635     13.37500     21.54408      0.19103     22.01157    177.84060    338.18150    189.11820     10.97617     10.83034     11.03540     10.71374
       1254.40440     31.80973     17.50000   1951.88904    109.12500      0.30087      0.31688      0.33068   1950.99992      0.30457      0.28646     87.59142     13.37500     22.08845      0.18260     22.43657    177.81770    338.14490    189.11820     11.17141     11.12345     11.26515     10.96500
       1254.55680     28.84442     17.50000   1945.12498    109.17360      0.29522      0.32449      0.33221   1940.99997      0.30568      0.28254     90.08572     13.37500     22.34457      0.18122     22.66247    177.79330    338.10660    189.11820     11.28273     11.24037     11.37974     11.10420
       1254.70920     31.27059     17.50000   1946.49992    109.64840      0.28915      0.32392      0.34412   1950.99992      0.30474      0.27785     93.35564     13.37500     22.80004      0.17579     23.16848    177.76800    338.06750    189.11820     11.56016     11.47367     11.60831     11.32637
       1254.86160     29.11399     17.50000   1944.99999    109.84030      0.27801      0.32539      0.35145   1948.00007      0.30165      0.26959     96.96743     13.37500     23.22503      0.17522     23.56133    177.74100    338.02670    189.11820     11.75366     11.67719     11.80767     11.54784
       1255.01400     29.92272     17.50000   1928.50014    110.30470      0.27120      0.32645      0.36034   1926.50024      0.29988      0.26897    102.07600     13.37500     23.45157      0.17796     23.81284    177.71260    337.98450    189.11820     11.89152     11.79325     11.92133     11.65832
       1255.16640     31.27059     17.50000   1947.55562    110.49220      0.26603      0.31439      0.35411   1950.99992      0.28816      0.25799    105.41240     13.37500     24.24161      0.17397     24.81564    177.68330    337.94130    189.11820     12.38532     12.19801     12.43032     12.04360
       1255.31880     32.07931     17.50000   1938.25010    109.84720      0.25604      0.30158      0.33962   1928.99989      0.27758      0.24855    108.82530     13.37500     24.85929      0.17038     25.45263    177.65060    337.89490    189.11820     12.68519     12.51445     12.76744     12.34483
       1255.47120     31.57386     17.50000   1963.11127    110.54170      0.24858      0.29186      0.33238   1967.00002      0.26639      0.23909    112.03060     13.37500     25.30681      0.15433     25.92069    177.61560    337.84600    189.11820     12.92948     12.74373     12.99121     12.56308
