~VERSION INFORMATION 
VERS  .    2.0                                     :CWLS Log ASCII Standard - VERSION 2.0
WRAP  .    NO                                      :One Line per Depth step
PROD  .    Schlumberger Technology Corp.           :LAS Producer
PROG  .    Horizon LASWriter 7.3.92069.3100        :LAS Program name and version
SOURCE.    1A-Log[6]/Up                            :Run&Pass Information
CREA  .    04/30/2018                              :LAS Creation date {MM/DD/YYYY}
#--------------------------------------------------
~WELL INFORMATION 
#MNEM           .UNIT                      DATA            :DESCRIPTION
#----            ------          --------------            -----------------------------
STRT            .m                    979.93200            :START DEPTH
STOP            .m                   3037.94160            :STOP DEPTH
STEP            .m                       0.1524            :STEP
NULL            .                       -999.25            :NULL VALUE
COMP            .                PETROLEOS MEXICANOS       :COMPANY
WELL            .                  MADREFIL 131            :WELL NAME
FLD             .                      MADREFIL            :FIELD NAME
RIGN            .                                          :Rig Name
RIGTYP          .                                          :Rig Type
SON             .                                          :Service Order Number
SRVC            .                  Schlumberger            :SERVICE COMPANY
DATE            .                    04/30/2018            :LOG DATE(Composite Date for Composite LAP) (MM/DD/YYYY)
CLAB            .                       County:            :County Label
CNTY            .                      VERACRUZ            :COUNTY
SLAB            .                       Equipo:            :State/Province Label
STAT            .                      ICMA-879            :STATE or PROVINCE
PROV            .                      ICMA-879            :STATE or PROVINCE
CTRY            .                                          :COUNTRY
CONT_REGION     .                                          :Continent Region
SECT            .                                          :Section
TOWN            .                                          :Township
RANG            .                                          :Range
API             .                                          :API NUMBER
UWI             .                                          :UNIQUE WELL ID
LUL             .                                          :Logging Unit Location
LUN             .                                          :Logging Unit Number
LOC             .                PERA MADREFIL-61          :FIELD LOCATION
FL1             .                                          :Field Location Line 1
FL2             .                                          :Field Location Line 2
LATI            .deg             18° 10' 19.542" N         :LATITUDE
LONG            .deg             93° 20' 3.618" W          :LONGITUDE
PDAT            .                            GL            :Local Permanent Datum
LMF             .                            DF            :Logging Measured From
APD             .m                        12.00            :Elevation of Depth Reference (LMF) Above Permanent Datum
EPD             .m                        20.01            :Elevation of Permanent Datum (PDAT) above Mean Sea Level
EKB             .m                      -999.25            :Elevation of Kelly Bushing Above Permanent Datum
EDF             .m                        12.00            :Elevation of Drill Floor Above Permanent Datum
EGL             .m                         0.00            :Elevation of Ground Level Above Permanent Datum
ECF             .m                      -999.25            :Elevation of Casing Flange above Permanent Datum
#--------------------------------------------------
~CURVE INFORMATION
#MNEM           .UNIT                  API CODE            :DESCRIPTION
#----            ------          --------------            -----------------------------
DEPT            .m                                         :                                                        Depth Index
GR              .gAPI                                      :        (SGT-N)                 (6in)                   Calibrated Gamma Ray
BS              .in                                        :(RT)    (Borehole)              (6in)                   Bit Size
TENS            .lbf                                       :        (WLWorkflow)            (6in)                   Cable Tension
SP              .mV                                        :        (AIT-M)                 (6in)                   Spontaneous Potential
AT90            .ohm.m                                     :        (AIT-M)                 (3in)                   Array Induction Two Foot Resistivity A90
AT20            .ohm.m                                     :        (AIT-M)                 (3in)                   Array Induction Two Foot Resistivity A20
AT10            .ohm.m                                     :        (AIT-M)                 (3in)                   Array Induction Two Foot Resistivity A10
TENS            .lbf                                       :        (WLWorkflow)            (1in)                   Cable Tension
AT30            .ohm.m                                     :        (AIT-M)                 (3in)                   Array Induction Two Foot Resistivity A30
AT60            .ohm.m                                     :        (AIT-M)                 (3in)                   Array Induction Two Foot Resistivity A60
HAZIM           .deg                                       :        (GPIT-C[1])             (6in)                   Memorized Hole Azimuth
FCD             .in                                        :(RT)    (Borehole)              (6in)                   Future Casing Diameter
HD2             .in                                        :        (PPC-B)                 (6in)                   Hole Diameter 2
DeviationDEVI   .deg                                       :        (GPIT-C[1])             (6in)                   Memorized Sonde Deviation
HD1             .in                                        :        (PPC-B)                 (6in)                   Hole Diameter 1
ICV             .m3                                        :(RT)    (Borehole)              (6in)                   Integrated Cement Volume
IHV             .m3                                        :(RT)    (Borehole)              (6in)                   Integrated Hole Volume
RB              .deg                                       :        (PPC-B)                 (6in)                   Relative Bearing
RD1             .in                                        :        (PPC-B)                 (6in)                   Radius 1
RD2             .in                                        :        (PPC-B)                 (6in)                   Radius 2
RD3             .in                                        :        (PPC-B)                 (6in)                   Radius 3
RD4             .in                                        :        (PPC-B)                 (6in)                   Radius 4
#-------------------------------------------------------------
#            DEPT           GR           BS         TENS           SP         AT90         AT20         AT10         TENS         AT30         AT60        HAZIM          FCD          HD2 DeviationDEVI          HD1          ICV          IHV           RB          RD1          RD2          RD3          RD4 
#                      (SGT-N)   (Borehole)  (WLWorkflo)      (AIT-M)      (AIT-M)      (AIT-M)      (AIT-M)  (WLWorkflo)      (AIT-M)      (AIT-M)  (GPIT-C[1])   (Borehole)      (PPC-B)  (GPIT-C[1])      (PPC-B)   (Borehole)   (Borehole)      (PPC-B)      (PPC-B)      (PPC-B)      (PPC-B)      (PPC-B) 
#                                      (RT)                                                                                                                              (RT)                                                (RT)         (RT)                                                                  
#                        (6in)        (6in)        (6in)        (6in)        (3in)        (3in)        (3in)        (1in)        (3in)        (3in)        (6in)        (6in)        (6in)        (6in)        (6in)        (6in)        (6in)        (6in)        (6in)        (6in)        (6in)        (6in) 
~ASCII
# ...
       1798.77720     39.70825     17.50000   2435.55536     77.84375      0.25486      0.25952      0.24852   2440.49891      0.25251      0.25112    292.75380     13.37500     17.88905      0.31973     17.95462     97.94205    208.92540    193.17070      8.93372      8.98753      9.02089      8.90152
       1798.92960     40.51698     17.50000   2427.87589     77.46528      0.27034      0.28087      0.27066   2426.50006      0.26918      0.27012    292.09590     13.37500     18.03024      0.31770     17.98309     97.93105    208.90060    193.17070      8.93311      9.04516      9.04998      8.98508
       1799.08200     38.36039     17.50000   2440.22239     76.32639      0.33323      0.34535      0.33225   2443.99918      0.33284      0.33555    292.41390     13.37500     18.03515      0.31895     18.07141     97.91983    208.87560    193.17070      8.99130      9.04767      9.08011      8.98748
       1799.23440     39.35781     17.50000   2433.66697     77.63889      0.39139      0.42004      0.42730   2441.00023      0.40237      0.40049    291.97030     13.37500     18.06378      0.32338     18.12894     97.90848    208.85040    193.17070      9.04883      9.04767      9.08011      9.01611
       1799.38680     42.86227     17.50000   2410.77692     79.86806      0.44008      0.44799      0.51050   2407.00013      0.44808      0.45307    292.14440     13.37500     18.09383      0.32687     18.07141     97.89700    208.82510    193.17070      8.99130      9.07773      9.08011      9.01611
       1799.53920     42.67357     17.50000   2425.33330     79.53906      0.50850      0.51547      0.57760   2437.00088      0.51871      0.52356    292.08500     13.37500     18.06378      0.33487     18.21686     97.88557    208.79990    193.17070      9.07757      9.04767      9.13929      9.01611
       1799.69160     42.40400     17.50000   2404.12482     79.95834      0.60245      0.59625      0.66150   2409.00093      0.61029      0.62563    291.83690     13.37500     18.06520      0.33960     18.21686     97.87397    208.77450    193.17070      9.07757      9.07773      9.13929      8.98748
       1799.84400     44.29101     17.50000   2405.77717     80.99306      0.76307      0.69892      0.74045   2404.00118      0.72542      0.75956    291.82350     13.37500     18.06378      0.34493     18.21686     97.86237    208.74910    193.18310      9.07757      9.04767      9.13929      9.01611
       1799.99640     45.01886     17.50000   2434.44480     80.22916      0.90570      0.78706      0.79547   2445.99998      0.82335      0.88811    291.57100     13.37500     18.09383      0.34761     18.12894     97.85078    208.72360    193.17070      9.04883      9.07773      9.08011      9.01611
       1800.14880     44.47971     17.50000   2420.44370     78.49306      0.99417      0.84757      0.85420   2415.00108      0.87560      0.97152    291.57110     13.37500     18.09383      0.35014     18.18811     97.83926    208.69830    193.18310      9.04883      9.07773      9.13929      9.01611
       1800.30120     44.74929     17.50000   2423.22234     78.46528      1.02254      0.85212      0.87311   2421.99938      0.88033      0.97860    291.86440     13.37500     18.06033      0.34940     18.07034     97.82766    208.67290    193.17070      8.99073      9.07524      9.07961      8.98508
       1800.45360     47.17545     17.50000   2435.22264     81.07639      0.93837      0.79715      0.82259   2438.99943      0.82316      0.91429    291.84080     13.37500     18.06378      0.35017     18.07141     97.81628    208.64770    193.17070      8.99130      9.04767      9.08011      9.01611
       1800.60600     49.60162     17.50000   2434.33240     78.89063      0.85084      0.73779      0.75795   2428.50086      0.75294      0.83254    292.23620     13.37500     18.06378      0.35171     18.07141     97.80488    208.62250    193.17070      8.99130      9.04767      9.08011      9.01611
       1800.75840     50.67992     17.50000   2452.37557     80.10416      0.81661      0.71224      0.72607   2455.99949      0.72757      0.79723    292.37230     13.37500     18.06378      0.35371     18.07141     97.79349    208.59730    193.17070      8.99130      9.04767      9.08011      9.01611
       1800.91080     47.71461     17.50000   2452.44526     79.82639      0.80384      0.71197      0.70765   2450.99973      0.72128      0.77549    292.39550     13.37500     18.05890      0.35989     18.12894     97.78210    208.57210    193.17070      9.04883      9.04516      9.08011      9.01374
       1801.06320     47.98418     17.50000   2443.99918     81.21528      0.78807      0.70368      0.69213   2447.00038      0.71437      0.76348    292.15330     13.37500     18.03371      0.36312     18.07141     97.77062    208.54680    193.17070      8.99130      9.01761      9.08011      9.01611
       1801.21560     49.17030     17.50000   2430.66577     81.50694      0.76004      0.67996      0.67654   2442.00063      0.68975      0.73364    291.99900     13.37500     18.03515      0.36247     18.07141     97.75928    208.52160    193.17070      8.99130      9.04767      9.08011      8.98748
       1801.36800     51.59647     17.50000   2432.88913     81.42361      0.72472      0.65860      0.65959   2437.00088      0.66764      0.70600    291.60870     13.37500     18.06378      0.36322     18.07141     97.74793    208.49650    193.17070      8.99130      9.04767      9.08011      9.01611
       1801.52040     51.59647     17.50000   2442.55591     81.45313      0.72972      0.66291      0.67061   2454.00093      0.67555      0.71625    291.70230     13.37500     18.09383      0.35989     18.07141     97.73654    208.47130    193.18310      8.99130      9.07773      9.08011      9.01611
       1801.67280     47.98418     17.50000   2436.49956     81.45834      0.75901      0.69173      0.70182   2440.49891      0.70909      0.75833    291.28080     13.37500     18.06378      0.36065     18.07141     97.72511    208.44600    193.17070      8.99130      9.04767      9.08011      9.01611
       1801.82520     48.25375     17.50000   2420.77867     80.81944      0.79181      0.72303      0.73430   2422.50071      0.74311      0.78638    291.09230     13.37500     18.06378      0.35628     18.01219     97.71371    208.42080    193.17070      8.99130      9.04767      9.02089      9.01611
       1801.97760     46.82501     17.50000   2428.77737     80.63194      0.81722      0.74305      0.75463   2437.00088      0.76915      0.81055    290.69380     13.37500     18.05890      0.35539     18.07034     97.70240    208.39570    193.17070      8.99073      9.04516      9.07961      9.01374
       1802.13000     48.44246     17.50000   2419.00043     81.02778      0.83539      0.75645      0.76961   2414.00068      0.78089      0.82741    290.14720     13.37500     18.06378      0.35640     18.07141     97.69101    208.37050    193.17070      8.99130      9.04767      9.08011      9.01611
       1802.28240     46.82501     17.50000   2417.11203     81.05469      0.83720      0.75582      0.75963   2416.99963      0.77987      0.82629    289.53230     13.37500     18.09383      0.35460     18.07141     97.67962    208.34530    193.17070      8.99130      9.07773      9.08011      9.01611
       1802.43480     47.44503     17.50000   2420.88883     80.27084      0.83494      0.75180      0.75420   2420.99898      0.77631      0.82212    288.78810     13.37500     18.06378      0.35421     18.07141     97.66818    208.32000    193.17070      8.99130      9.04767      9.08011      9.01611
       1802.58720     49.06248     17.50000   2418.87454     80.19444      0.83044      0.74561      0.74053   2415.00108      0.77119      0.81638    286.88090     13.37500     18.05890      0.35404     18.07034     97.65679    208.29480    193.17070      8.99073      9.04516      9.07961      9.01374
       1802.73960     50.22164     17.50000   2427.99953     81.19444      0.83614      0.74981      0.74987   2425.00058      0.77385      0.81687    286.02360     13.37500     18.08898      0.35416     18.07034     97.64541    208.26960    193.17070      8.99073      9.07524      9.07961      9.01374
