~VERSION INFORMATION 
VERS  .    2.0                                     :CWLS Log ASCII Standard - VERSION 2.0
WRAP  .    NO                                      :One Line per Depth step
PROD  .    Schlumberger Technology Corp.           :LAS Producer
PROG  .    Horizon LASWriter 7.3.92069.3100        :LAS Program name and version
SOURCE.    1A-Log[6]/Up                            :Run&Pass Information
CREA  .    04/30/2018                              :LAS Creation date {MM/DD/YYYY}
#--------------------------------------------------
~WELL INFORMATION 
#MNEM           .UNIT                      DATA            :DESCRIPTION
#----            ------          --------------            -----------------------------
STRT            .m                    979.93200            :START DEPTH
STOP            .m                   3037.94160            :STOP DEPTH
STEP            .m                       0.1524            :STEP
NULL            .                       -999.25            :NULL VALUE
COMP            .                PETROLEOS MEXICANOS       :COMPANY
WELL            .                  MADREFIL 131            :WELL NAME
FLD             .                      MADREFIL            :FIELD NAME
RIGN            .                                          :Rig Name
RIGTYP          .                                          :Rig Type
SON             .                                          :Service Order Number
SRVC            .                  Schlumberger            :SERVICE COMPANY
DATE            .                    04/30/2018            :LOG DATE(Composite Date for Composite LAP) (MM/DD/YYYY)
CLAB            .                       County:            :County Label
CNTY            .                      VERACRUZ            :COUNTY
SLAB            .                       Equipo:            :State/Province Label
STAT            .                      ICMA-879            :STATE or PROVINCE
PROV            .                      ICMA-879            :STATE or PROVINCE
CTRY            .                                          :COUNTRY
CONT_REGION     .                                          :Continent Region
SECT            .                                          :Section
TOWN            .                                          :Township
RANG            .                                          :Range
API             .                                          :API NUMBER
UWI             .                                          :UNIQUE WELL ID
LUL             .                                          :Logging Unit Location
LUN             .                                          :Logging Unit Number
LOC             .                PERA MADREFIL-61          :FIELD LOCATION
FL1             .                                          :Field Location Line 1
FL2             .                                          :Field Location Line 2
LATI            .deg             18° 10' 19.542" N         :LATITUDE
LONG            .deg             93° 20' 3.618" W          :LONGITUDE
PDAT            .                            GL            :Local Permanent Datum
LMF             .                            DF            :Logging Measured From
APD             .m                        12.00            :Elevation of Depth Reference (LMF) Above Permanent Datum
EPD             .m                        20.01            :Elevation of Permanent Datum (PDAT) above Mean Sea Level
EKB             .m                      -999.25            :Elevation of Kelly Bushing Above Permanent Datum
EDF             .m                        12.00            :Elevation of Drill Floor Above Permanent Datum
EGL             .m                         0.00            :Elevation of Ground Level Above Permanent Datum
ECF             .m                      -999.25            :Elevation of Casing Flange above Permanent Datum
#--------------------------------------------------
~CURVE INFORMATION
#MNEM           .UNIT                  API CODE            :DESCRIPTION
#----            ------          --------------            -----------------------------
DEPT            .m                                         :                                                        Depth Index
GR              .gAPI                                      :        (SGT-N)                 (6in)                   Calibrated Gamma Ray
BS              .in                                        :(RT)    (Borehole)              (6in)                   Bit Size
TENS            .lbf                                       :        (WLWorkflow)            (6in)                   Cable Tension
SP              .mV                                        :        (AIT-M)                 (6in)                   Spontaneous Potential
AT90            .ohm.m                                     :        (AIT-M)                 (3in)                   Array Induction Two Foot Resistivity A90
AT20            .ohm.m                                     :        (AIT-M)                 (3in)                   Array Induction Two Foot Resistivity A20
AT10            .ohm.m                                     :        (AIT-M)                 (3in)                   Array Induction Two Foot Resistivity A10
TENS            .lbf                                       :        (WLWorkflow)            (1in)                   Cable Tension
AT30            .ohm.m                                     :        (AIT-M)                 (3in)                   Array Induction Two Foot Resistivity A30
AT60            .ohm.m                                     :        (AIT-M)                 (3in)                   Array Induction Two Foot Resistivity A60
HAZIM           .deg                                       :        (GPIT-C[1])             (6in)                   Memorized Hole Azimuth
FCD             .in                                        :(RT)    (Borehole)              (6in)                   Future Casing Diameter
HD2             .in                                        :        (PPC-B)                 (6in)                   Hole Diameter 2
DeviationDEVI   .deg                                       :        (GPIT-C[1])             (6in)                   Memorized Sonde Deviation
HD1             .in                                        :        (PPC-B)                 (6in)                   Hole Diameter 1
ICV             .m3                                        :(RT)    (Borehole)              (6in)                   Integrated Cement Volume
IHV             .m3                                        :(RT)    (Borehole)              (6in)                   Integrated Hole Volume
RB              .deg                                       :        (PPC-B)                 (6in)                   Relative Bearing
RD1             .in                                        :        (PPC-B)                 (6in)                   Radius 1
RD2             .in                                        :        (PPC-B)                 (6in)                   Radius 2
RD3             .in                                        :        (PPC-B)                 (6in)                   Radius 3
RD4             .in                                        :        (PPC-B)                 (6in)                   Radius 4
#-------------------------------------------------------------
#            DEPT           GR           BS         TENS           SP         AT90         AT20         AT10         TENS         AT30         AT60        HAZIM          FCD          HD2 DeviationDEVI          HD1          ICV          IHV           RB          RD1          RD2          RD3          RD4 
#                      (SGT-N)   (Borehole)  (WLWorkflo)      (AIT-M)      (AIT-M)      (AIT-M)      (AIT-M)  (WLWorkflo)      (AIT-M)      (AIT-M)  (GPIT-C[1])   (Borehole)      (PPC-B)  (GPIT-C[1])      (PPC-B)   (Borehole)   (Borehole)      (PPC-B)      (PPC-B)      (PPC-B)      (PPC-B)      (PPC-B) 
#                                      (RT)                                                                                                                              (RT)                                                (RT)         (RT)                                                                  
#                        (6in)        (6in)        (6in)        (6in)        (3in)        (3in)        (3in)        (1in)        (3in)        (3in)        (6in)        (6in)        (6in)        (6in)        (6in)        (6in)        (6in)        (6in)        (6in)        (6in)        (6in)        (6in) 
~ASCII
# ...
       2210.25720     42.59270     17.50000   2788.62455     79.59028      0.54885      0.50842      0.50467   2795.00013      0.51110      0.52326    175.31680     13.37500     18.11763      0.36482     18.15756     67.05899    140.74450    193.52110      9.04831      9.07524      9.10924      9.04239
       2210.40960     41.51440     17.50000   2784.11039     79.29861      0.47062      0.44573      0.44980   2791.99893      0.44711      0.45618    175.14610     13.37500     18.14770      0.37314     18.06951     67.04740    140.71910    193.50840      9.01953      9.10531      9.04998      9.04239
       2210.56200     40.97525     17.50000   2775.99928     80.24306      0.45087      0.43107      0.42349   2779.00048      0.43348      0.43904    175.03860     13.37500     18.11763      0.37532     18.09914     67.03589    140.69380    193.52110      9.01953      9.07524      9.07961      9.04239
       2210.71440     41.40657     17.50000   2776.22184     78.39584      0.43948      0.42470      0.41851   2791.00078      0.42400      0.42996    174.99330     13.37500     18.12245      0.37672     18.07057     67.02438    140.66850    193.52110      9.02007      9.07773      9.05051      9.04472
       2210.86680     43.02401     17.50000   2768.33329     75.92969      0.45946      0.45437      0.45153   2771.99993      0.44465      0.44498    174.83870     13.37500     18.11763      0.37736     17.98226     67.01290    140.64320    193.52110      8.96192      9.07524      9.02033      9.04239
       2211.01920     44.10231     17.50000   2780.77872     71.89584      0.49941      0.49896      0.49266   2788.99998      0.48815      0.49073    174.82170     13.37500     18.09239      0.37822     17.98341     67.00156    140.61810    193.52110      8.96252      9.04767      9.02089      9.04472
       2211.17160     46.90588     17.50000   2784.62520     72.29166      0.53875      0.53485      0.53501   2786.50011      0.52695      0.52918    174.72810     13.37500     18.03024      0.37886     17.95260     66.99025    140.59290    193.52110      8.96192      9.04516      8.99068      8.98508
       2211.32400     49.60162     17.50000   2786.00103     71.79861      0.53151      0.53943      0.54463   2778.00008      0.53235      0.53201    174.61730     13.37500     18.17775      0.38047     18.12877     66.97907    140.56790    193.52110      9.01953      9.13537      9.10924      9.04239
       2211.47640     47.98418     17.50000   2803.77892     73.90972      0.55429      0.54154      0.56234   2804.99963      0.53749      0.54526    174.77620     13.37500     18.20639      0.38387     18.15756     66.96744    140.54250    193.50840      9.04831      9.13537      9.10924      9.07102
       2211.62880     47.60678     17.50000   2807.77827     74.50000      0.56769      0.55437      0.56414   2807.00043      0.55216      0.56162    174.88590     13.37500     18.20639      0.38668     18.15756     66.95573    140.51700    193.52110      9.04831      9.13537      9.10924      9.07102
       2211.78120     45.45018     17.50000   2806.62500     75.06944      0.58710      0.57551      0.58060   2803.00108      0.57103      0.58202    174.71840     13.37500     18.21113      0.38786     18.18728     66.94402    140.49140    193.50840      9.07757      9.13780      9.10971      9.07333
       2211.93360     46.25891     17.50000   2818.33305     76.50000      0.60407      0.59285      0.59843   2818.00033      0.58666      0.60065    174.91470     13.37500     18.23502      0.39058     18.15756     66.93225    140.46580    193.52110      9.04831      9.13537      9.10924      9.09965
       2212.08600     45.55801     17.50000   2800.44500     77.30556      0.61537      0.59643      0.61614   2791.00078      0.59695      0.61316    175.05720     13.37500     18.23502      0.39430     18.18633     66.92050    140.44030    193.52110      9.07709      9.13537      9.10924      9.09965
       2212.23840     49.06248     17.50000   2806.66772     77.05556      0.62527      0.60769      0.62095   2808.99898      0.60465      0.62339    175.14290     13.37500     18.23502      0.39769     18.15756     66.90871    140.41470    193.52110      9.04831      9.13537      9.10924      9.09965
       2212.39080     48.79290     17.50000   2806.33275     77.84375      0.64473      0.62186      0.62982   2808.00083      0.62270      0.64384    175.19820     13.37500     18.26506      0.39958     18.15837     66.89695    140.38910    193.52110      9.01953      9.16542      9.13884      9.09965
       2212.54320     48.03809     17.50000   2795.77797     78.11111      0.66470      0.63920      0.64464   2787.99958      0.63545      0.65773    175.29560     13.37500     18.23502      0.40032     18.15756     66.88515    140.36350    193.52110      9.04831      9.13537      9.10924      9.09965
       2212.69560     46.95979     17.50000   2791.44365     78.25694      0.69230      0.66887      0.66209   2799.50081      0.66175      0.68785    175.53010     13.37500     18.29510      0.39952     18.18716     66.87340    140.33790    193.52110      9.04831      9.19545      9.13884      9.09965
       2212.84800     50.46426     17.50000   2775.87563     78.41666      0.69707      0.66599      0.67364   2776.50060      0.66090      0.68722    175.75260     13.37500     18.26506      0.39824     18.12877     66.86152    140.31220    193.52110      9.01953      9.16542      9.10924      9.09965
       2213.00040     51.75822     17.50000   2775.44400     78.94444      0.71268      0.66263      0.67758   2775.50020      0.66108      0.70155    176.04880     13.37500     18.14770      0.39242     18.09914     66.84975    140.28670    193.52110      9.01953      9.10531      9.07961      9.04239
       2213.15280     51.75822     17.50000   2778.88807     78.00000      0.72480      0.66345      0.69820   2786.00103      0.67091      0.70603    176.14080     13.37500     18.11763      0.38905     18.12877     66.83820    140.26130    193.52110      9.01953      9.07524      9.10924      9.04239
       2213.30520     45.55801     17.50000   2779.77832     74.54166      0.78343      0.71680      0.73480   2780.00088      0.72278      0.76233    176.04040     13.37500     18.23644      0.38637     18.09914     66.82665    140.23590    193.50840      9.01953      9.16542      9.07961      9.07102
       2213.45760     42.32312     17.50000   2772.11009     74.20313      0.86681      0.77954      0.78168   2773.00033      0.78789      0.83949    176.14590     13.37500     18.23502      0.38329     18.15756     66.81497    140.21050    193.52110      9.04831      9.13537      9.10924      9.09965
       2213.61000     44.21014     17.50000   2782.37486     76.04166      0.91255      0.83202      0.81756   2790.00038      0.83741      0.88661    176.25460     13.37500     18.29367      0.38470     18.12877     66.80322    140.18490    193.52110      9.01953      9.16542      9.10924      9.12826
       2213.76240     51.21907     17.50000   2775.77897     78.50000      0.94522      0.84641      0.85545   2769.00098      0.86186      0.91035    176.01890     13.37500     18.26506      0.38199     18.12793     66.79142    140.15930    193.52110      9.04831      9.16542      9.07961      9.09965
       2213.91480     52.43216     17.50000   2794.77757     78.39584      0.96977      0.88005      0.89485   2801.00028      0.88936      0.94238    175.86030     13.37500     18.29367      0.38625     18.12877     66.77967    140.13370    193.50840      9.01953      9.16542      9.10924      9.12826
       2214.06720     52.16257     17.50000   2789.22254     77.42361      1.00433      0.91362      0.93084   2788.99998      0.92684      0.98635    175.89300     13.37500     18.23502      0.38652     18.12877     66.76788    140.10810    193.52110      9.01953      9.13537      9.10924      9.09965
       2214.21960     48.92769     17.50000   2788.33455     77.92969      1.00242      0.92582      0.94059   2785.49971      0.93490      0.98461    176.22250     13.37500     18.26363      0.38785     18.21593     66.75616    140.08260    193.50840      9.07709      9.13537      9.13884      9.12826
