~VERSION INFORMATION 
VERS  .    2.0                                     :CWLS Log ASCII Standard - VERSION 2.0
WRAP  .    NO                                      :One Line per Depth step
PROD  .    Schlumberger Technology Corp.           :LAS Producer
PROG  .    Horizon LASWriter 7.3.92069.3100        :LAS Program name and version
SOURCE.    1A-Log[6]/Up                            :Run&Pass Information
CREA  .    04/30/2018                              :LAS Creation date {MM/DD/YYYY}
#--------------------------------------------------
~WELL INFORMATION 
#MNEM           .UNIT                      DATA            :DESCRIPTION
#----            ------          --------------            -----------------------------
STRT            .m                    979.93200            :START DEPTH
STOP            .m                   3037.94160            :STOP DEPTH
STEP            .m                       0.1524            :STEP
NULL            .                       -999.25            :NULL VALUE
COMP            .                PETROLEOS MEXICANOS       :COMPANY
WELL            .                  MADREFIL 131            :WELL NAME
FLD             .                      MADREFIL            :FIELD NAME
RIGN            .                                          :Rig Name
RIGTYP          .                                          :Rig Type
SON             .                                          :Service Order Number
SRVC            .                  Schlumberger            :SERVICE COMPANY
DATE            .                    04/30/2018            :LOG DATE(Composite Date for Composite LAP) (MM/DD/YYYY)
CLAB            .                       County:            :County Label
CNTY            .                      VERACRUZ            :COUNTY
SLAB            .                       Equipo:            :State/Province Label
STAT            .                      ICMA-879            :STATE or PROVINCE
PROV            .                      ICMA-879            :STATE or PROVINCE
CTRY            .                                          :COUNTRY
CONT_REGION     .                                          :Continent Region
SECT            .                                          :Section
TOWN            .                                          :Township
RANG            .                                          :Range
API             .                                          :API NUMBER
UWI             .                                          :UNIQUE WELL ID
LUL             .                                          :Logging Unit Location
LUN             .                                          :Logging Unit Number
LOC             .                PERA MADREFIL-61          :FIELD LOCATION
FL1             .                                          :Field Location Line 1
FL2             .                                          :Field Location Line 2
LATI            .deg             18° 10' 19.542" N         :LATITUDE
LONG            .deg             93° 20' 3.618" W          :LONGITUDE
PDAT            .                            GL            :Local Permanent Datum
LMF             .                            DF            :Logging Measured From
APD             .m                        12.00            :Elevation of Depth Reference (LMF) Above Permanent Datum
EPD             .m                        20.01            :Elevation of Permanent Datum (PDAT) above Mean Sea Level
EKB             .m                      -999.25            :Elevation of Kelly Bushing Above Permanent Datum
EDF             .m                        12.00            :Elevation of Drill Floor Above Permanent Datum
EGL             .m                         0.00            :Elevation of Ground Level Above Permanent Datum
ECF             .m                      -999.25            :Elevation of Casing Flange above Permanent Datum
#--------------------------------------------------
~CURVE INFORMATION
#MNEM           .UNIT                  API CODE            :DESCRIPTION
#----            ------          --------------            -----------------------------
DEPT            .m                                         :                                                        Depth Index
GR              .gAPI                                      :        (SGT-N)                 (6in)                   Calibrated Gamma Ray
BS              .in                                        :(RT)    (Borehole)              (6in)                   Bit Size
TENS            .lbf                                       :        (WLWorkflow)            (6in)                   Cable Tension
SP              .mV                                        :        (AIT-M)                 (6in)                   Spontaneous Potential
AT90            .ohm.m                                     :        (AIT-M)                 (3in)                   Array Induction Two Foot Resistivity A90
AT20            .ohm.m                                     :        (AIT-M)                 (3in)                   Array Induction Two Foot Resistivity A20
AT10            .ohm.m                                     :        (AIT-M)                 (3in)                   Array Induction Two Foot Resistivity A10
TENS            .lbf                                       :        (WLWorkflow)            (1in)                   Cable Tension
AT30            .ohm.m                                     :        (AIT-M)                 (3in)                   Array Induction Two Foot Resistivity A30
AT60            .ohm.m                                     :        (AIT-M)                 (3in)                   Array Induction Two Foot Resistivity A60
HAZIM           .deg                                       :        (GPIT-C[1])             (6in)                   Memorized Hole Azimuth
FCD             .in                                        :(RT)    (Borehole)              (6in)                   Future Casing Diameter
HD2             .in                                        :        (PPC-B)                 (6in)                   Hole Diameter 2
DeviationDEVI   .deg                                       :        (GPIT-C[1])             (6in)                   Memorized Sonde Deviation
HD1             .in                                        :        (PPC-B)                 (6in)                   Hole Diameter 1
ICV             .m3                                        :(RT)    (Borehole)              (6in)                   Integrated Cement Volume
IHV             .m3                                        :(RT)    (Borehole)              (6in)                   Integrated Hole Volume
RB              .deg                                       :        (PPC-B)                 (6in)                   Relative Bearing
RD1             .in                                        :        (PPC-B)                 (6in)                   Radius 1
RD2             .in                                        :        (PPC-B)                 (6in)                   Radius 2
RD3             .in                                        :        (PPC-B)                 (6in)                   Radius 3
RD4             .in                                        :        (PPC-B)                 (6in)                   Radius 4
#-------------------------------------------------------------
#            DEPT           GR           BS         TENS           SP         AT90         AT20         AT10         TENS         AT30         AT60        HAZIM          FCD          HD2 DeviationDEVI          HD1          ICV          IHV           RB          RD1          RD2          RD3          RD4 
#                      (SGT-N)   (Borehole)  (WLWorkflo)      (AIT-M)      (AIT-M)      (AIT-M)      (AIT-M)  (WLWorkflo)      (AIT-M)      (AIT-M)  (GPIT-C[1])   (Borehole)      (PPC-B)  (GPIT-C[1])      (PPC-B)   (Borehole)   (Borehole)      (PPC-B)      (PPC-B)      (PPC-B)      (PPC-B)      (PPC-B) 
#                                      (RT)                                                                                                                              (RT)                                                (RT)         (RT)                                                                  
#                        (6in)        (6in)        (6in)        (6in)        (3in)        (3in)        (3in)        (1in)        (3in)        (3in)        (6in)        (6in)        (6in)        (6in)        (6in)        (6in)        (6in)        (6in)        (6in)        (6in)        (6in)        (6in) 
~ASCII
# ...
       1391.41200     43.67100     17.50000   2083.22220    100.10940      0.44667      0.47939      0.47226   2084.99998      0.46638      0.46248      4.89078     13.37500     20.39573      1.26731     18.27678    152.53650    300.44550    189.11820      9.04883     10.29988      9.22795     10.09585
       1391.56440     42.59270     17.50000   2070.12505    102.09030      0.47400      0.51011      0.51945   2072.99991      0.49786      0.49517      4.75143     13.37500     20.36615      1.25251     18.21768    152.52150    300.41670    189.11820      9.04883     10.27031      9.16885     10.09585
       1391.71680     38.81866     17.50000   2103.55571    101.08590      0.52270      0.55055      0.59153   2115.00006      0.54832      0.55018      4.71654     13.37500     20.28013      1.23168     18.27678    152.50670    300.38810    189.11820      9.04883     10.24071      9.22795     10.03942
       1391.86920     38.27951     17.50000   2118.50011     99.55556      0.57903      0.59920      0.64896   2117.49994      0.59182      0.59587      4.64799     13.37500     20.19268      1.21503     18.27598    152.49190    300.35940    189.11820      9.07757     10.18150      9.19841     10.01118
       1392.02160     40.43610     17.50000   2138.77788     95.45139      0.65491      0.65601      0.71413   2152.99997      0.65884      0.66744      4.73591     13.37500     20.10517      1.20007     18.27598    152.47720    300.33090    189.11820      9.07757     10.12224      9.19841      9.98293
       1392.17400     40.16653     17.50000   2083.00008     96.87500      0.73458      0.70806      0.76825   2066.00003      0.71714      0.73175      4.92898     13.37500     20.01900      1.18970     18.39331    152.46270    300.30260    189.11820      9.10631     10.09259      9.28700      9.92642
       1392.32640     43.94057     17.50000   2104.12493    100.39580      0.79394      0.75375      0.78107   2106.50026      0.75978      0.78359      5.76987     13.37500     19.73048      1.16667     18.39331    152.44800    300.27410    189.11820      9.10631      9.97389      9.28700      9.75659
       1392.47880     42.05355     17.50000   2113.33333    102.36110      0.84148      0.79008      0.79866   2112.00021      0.79079      0.82088      6.01934     13.37500     19.40886      1.15351     18.48103    152.43380    300.24610    189.11820      9.13503      9.76571      9.34600      9.64315
       1392.63120     39.08823     17.50000   2107.12501    101.75780      0.87508      0.82149      0.82951   2102.00004      0.81760      0.85311      6.39357     13.37500     19.38047      1.13938     18.50974    152.41990    300.21840    189.11820      9.16374      9.76571      9.34600      9.61476
       1392.78360     38.00994     17.50000   2131.33333    101.99310      0.86614      0.83107      0.85339   2138.99999      0.82199      0.86305      6.97214     13.37500     19.00258      1.12448     18.48103    152.40600    300.19070    189.11820      9.13503      9.58683      9.34600      9.41575
       1392.93600     38.00994     17.50000   2120.66660    102.39840      0.84654      0.83845      0.85676   2115.00006      0.83054      0.86117      7.36994     13.37500     18.94562      1.10801     18.39331    152.39270    300.16350    189.11820      9.10631      9.58683      9.28700      9.35879
       1393.08840     41.78397     17.50000   2112.37519    102.54860      0.85733      0.84007      0.86015   2114.50009      0.83155      0.86262      7.80723     13.37500     18.94562      1.08939     18.30630    152.37960    300.13670    189.11820      9.04883      9.58683      9.25748      9.35879
       1393.24080     43.77208     17.50000   2090.77780    102.36810      0.82501      0.79956      0.80818   2092.00009      0.78831      0.81348      8.36737     13.37500     18.97410      1.07802     18.33505    152.36670    300.10990    189.11820      9.07757      9.58683      9.25748      9.38728
       1393.39320     46.11737     17.50000   2082.22225    101.71880      0.79669      0.76631      0.77897   2075.99998      0.75399      0.76868      8.78964     13.37500     18.97410      1.05143     18.33582    152.35360    300.08300    189.11820      9.04883      9.58683      9.28700      9.38728
       1393.54560     39.24324     17.50000   2077.37492    102.40970      0.77353      0.74413      0.75565   2076.99993      0.73502      0.75242      9.05857     13.37500     19.00258      1.04246     18.36457    152.34060    300.05610    189.11820      9.07757      9.58683      9.28700      9.41575
       1393.69800     36.44641     17.50000   2115.88873    103.61110      0.77400      0.74670      0.75639   2125.00002      0.74565      0.76821      9.03923     13.37500     19.00258      1.04319     18.50974    152.32740    300.02910    189.11820      9.16374      9.58683      9.34600      9.41575
       1393.85040     32.48367     17.50000   2111.55554    104.58590      0.78919      0.75881      0.77366   2114.00011      0.75744      0.78805      8.93261     13.37500     19.26546      1.03639     18.48024    152.31410    300.00200    189.11820      9.16374      9.73593      9.31650      9.52954
       1394.00280     36.66207     17.50000   2088.12505    102.55560      0.80096      0.77795      0.79258   2092.00009      0.78277      0.81303      8.43936     13.37500     19.49538      1.03523     18.56712    152.30040    299.97450    189.11820      9.22112      9.79548      9.34600      9.69989
       1394.15520     36.39249     17.50000   2086.44461    101.83590      0.82033      0.79033      0.79315   2096.00011      0.79753      0.82234      8.31757     13.37500     18.85461      1.03174     18.62607    152.28620    299.94660    189.11820      9.22112      9.46734      9.40494      9.38728
       1394.30760     39.62738     17.50000   2105.00011    100.22920      0.78465      0.74480      0.75332   2112.99994      0.75479      0.77921      7.97271     13.37500     18.70930      1.02734     18.71286    152.27290    299.91940    189.11820      9.27846      9.40752      9.43440      9.30178
       1394.46000     40.97525     17.50000   2081.99991    101.68750      0.73546      0.69265      0.71876   2080.99996      0.70489      0.72420      7.83044     13.37500     18.65226      1.01020     18.77174    152.25970    299.89240    189.11820      9.27846      9.40752      9.49328      9.24474
       1394.61240     42.59270     17.50000   2092.66687    102.29690      0.69479      0.65328      0.69161   2093.00004      0.66427      0.67736      7.77815     13.37500     18.62233      0.99704     18.77096    152.24650    299.86530    189.11820      9.30711      9.37760      9.46385      9.24474
       1394.76480     44.21014     17.50000   2088.12483    100.90280      0.65227      0.62264      0.66521   2088.50004      0.62447      0.63105      7.91413     13.37500     18.59240      0.98029     18.77096    152.23330    299.83830    189.11820      9.30711      9.34767      9.46385      9.24474
       1394.91720     43.67099     17.50000   2087.33328     99.28125      0.60357      0.58115      0.61102   2084.99998      0.58138      0.57699      8.07402     13.37500     18.59240      0.96300     18.80039    152.22020    299.81140    189.11820      9.30711      9.34767      9.49328      9.24474
       1395.06960     44.74929     17.50000   2088.75002    100.40970      0.54415      0.53368      0.55204   2075.00003      0.52192      0.52545      8.06630     13.37500     18.59240      0.94452     18.80039    152.20700    299.78440    189.11820      9.30711      9.34767      9.49328      9.24474
       1395.22200     41.51440     17.50000   2119.66665    100.30560      0.49170      0.48997      0.51222   2119.99981      0.47820      0.47934      8.21742     13.37500     18.65226      0.92492     18.82902    152.19380    299.75740    189.11820      9.33575      9.40752      9.49328      9.24474
       1395.37440     41.24483     17.50000   2131.66672    100.11720      0.46104      0.46333      0.46704   2130.99994      0.44930      0.45288      8.37456     13.37500     18.76912      0.90668     18.77096    152.18050    299.73030    189.11820      9.30711      9.46734      9.46385      9.30178
