~VERSION INFORMATION 
VERS  .    2.0                                     :CWLS Log ASCII Standard - VERSION 2.0
WRAP  .    NO                                      :One Line per Depth step
PROD  .    Schlumberger Technology Corp.           :LAS Producer
PROG  .    Horizon LASWriter 7.3.92069.3100        :LAS Program name and version
SOURCE.    1A-Log[6]/Up                            :Run&Pass Information
CREA  .    04/30/2018                              :LAS Creation date {MM/DD/YYYY}
#--------------------------------------------------
~WELL INFORMATION 
#MNEM           .UNIT                      DATA            :DESCRIPTION
#----            ------          --------------            -----------------------------
STRT            .m                    979.93200            :START DEPTH
STOP            .m                   3037.94160            :STOP DEPTH
STEP            .m                       0.1524            :STEP
NULL            .                       -999.25            :NULL VALUE
COMP            .                PETROLEOS MEXICANOS       :COMPANY
WELL            .                  MADREFIL 131            :WELL NAME
FLD             .                      MADREFIL            :FIELD NAME
RIGN            .                                          :Rig Name
RIGTYP          .                                          :Rig Type
SON             .                                          :Service Order Number
SRVC            .                  Schlumberger            :SERVICE COMPANY
DATE            .                    04/30/2018            :LOG DATE(Composite Date for Composite LAP) (MM/DD/YYYY)
CLAB            .                       County:            :County Label
CNTY            .                      VERACRUZ            :COUNTY
SLAB            .                       Equipo:            :State/Province Label
STAT            .                      ICMA-879            :STATE or PROVINCE
PROV            .                      ICMA-879            :STATE or PROVINCE
CTRY            .                                          :COUNTRY
CONT_REGION     .                                          :Continent Region
SECT            .                                          :Section
TOWN            .                                          :Township
RANG            .                                          :Range
API             .                                          :API NUMBER
UWI             .                                          :UNIQUE WELL ID
LUL             .                                          :Logging Unit Location
LUN             .                                          :Logging Unit Number
LOC             .                PERA MADREFIL-61          :FIELD LOCATION
FL1             .                                          :Field Location Line 1
FL2             .                                          :Field Location Line 2
LATI            .deg             18° 10' 19.542" N         :LATITUDE
LONG            .deg             93° 20' 3.618" W          :LONGITUDE
PDAT            .                            GL            :Local Permanent Datum
LMF             .                            DF            :Logging Measured From
APD             .m                        12.00            :Elevation of Depth Reference (LMF) Above Permanent Datum
EPD             .m                        20.01            :Elevation of Permanent Datum (PDAT) above Mean Sea Level
EKB             .m                      -999.25            :Elevation of Kelly Bushing Above Permanent Datum
EDF             .m                        12.00            :Elevation of Drill Floor Above Permanent Datum
EGL             .m                         0.00            :Elevation of Ground Level Above Permanent Datum
ECF             .m                      -999.25            :Elevation of Casing Flange above Permanent Datum
#--------------------------------------------------
~CURVE INFORMATION
#MNEM           .UNIT                  API CODE            :DESCRIPTION
#----            ------          --------------            -----------------------------
DEPT            .m                                         :                                                        Depth Index
GR              .gAPI                                      :        (SGT-N)                 (6in)                   Calibrated Gamma Ray
BS              .in                                        :(RT)    (Borehole)              (6in)                   Bit Size
TENS            .lbf                                       :        (WLWorkflow)            (6in)                   Cable Tension
SP              .mV                                        :        (AIT-M)                 (6in)                   Spontaneous Potential
AT90            .ohm.m                                     :        (AIT-M)                 (3in)                   Array Induction Two Foot Resistivity A90
AT20            .ohm.m                                     :        (AIT-M)                 (3in)                   Array Induction Two Foot Resistivity A20
AT10            .ohm.m                                     :        (AIT-M)                 (3in)                   Array Induction Two Foot Resistivity A10
TENS            .lbf                                       :        (WLWorkflow)            (1in)                   Cable Tension
AT30            .ohm.m                                     :        (AIT-M)                 (3in)                   Array Induction Two Foot Resistivity A30
AT60            .ohm.m                                     :        (AIT-M)                 (3in)                   Array Induction Two Foot Resistivity A60
HAZIM           .deg                                       :        (GPIT-C[1])             (6in)                   Memorized Hole Azimuth
FCD             .in                                        :(RT)    (Borehole)              (6in)                   Future Casing Diameter
HD2             .in                                        :        (PPC-B)                 (6in)                   Hole Diameter 2
DeviationDEVI   .deg                                       :        (GPIT-C[1])             (6in)                   Memorized Sonde Deviation
HD1             .in                                        :        (PPC-B)                 (6in)                   Hole Diameter 1
ICV             .m3                                        :(RT)    (Borehole)              (6in)                   Integrated Cement Volume
IHV             .m3                                        :(RT)    (Borehole)              (6in)                   Integrated Hole Volume
RB              .deg                                       :        (PPC-B)                 (6in)                   Relative Bearing
RD1             .in                                        :        (PPC-B)                 (6in)                   Radius 1
RD2             .in                                        :        (PPC-B)                 (6in)                   Radius 2
RD3             .in                                        :        (PPC-B)                 (6in)                   Radius 3
RD4             .in                                        :        (PPC-B)                 (6in)                   Radius 4
#-------------------------------------------------------------
#            DEPT           GR           BS         TENS           SP         AT90         AT20         AT10         TENS         AT30         AT60        HAZIM          FCD          HD2 DeviationDEVI          HD1          ICV          IHV           RB          RD1          RD2          RD3          RD4 
#                      (SGT-N)   (Borehole)  (WLWorkflo)      (AIT-M)      (AIT-M)      (AIT-M)      (AIT-M)  (WLWorkflo)      (AIT-M)      (AIT-M)  (GPIT-C[1])   (Borehole)      (PPC-B)  (GPIT-C[1])      (PPC-B)   (Borehole)   (Borehole)      (PPC-B)      (PPC-B)      (PPC-B)      (PPC-B)      (PPC-B) 
#                                      (RT)                                                                                                                              (RT)                                                (RT)         (RT)                                                                  
#                        (6in)        (6in)        (6in)        (6in)        (3in)        (3in)        (3in)        (1in)        (3in)        (3in)        (6in)        (6in)        (6in)        (6in)        (6in)        (6in)        (6in)        (6in)        (6in)        (6in)        (6in)        (6in) 
~ASCII
# ...
       2346.04560     49.14335     17.50000   2971.55608     81.63194      0.60888      0.66257      0.65029   2964.00025      0.64187      0.63106    161.04170     13.37500     18.32512      4.31454     18.15917     55.07845    116.45560    193.85920      8.99073      9.22547      9.16844      9.09965
       2346.19800     58.03929     17.50000   2980.55519     80.26389      0.65655      0.71272      0.72288   2989.99941      0.69201      0.68379    161.09400     13.37500     18.32650      4.30991     18.18797     55.06657    116.42990    193.85920      9.01953      9.25548      9.16844      9.07102
       2346.35040     55.07397     17.50000   2981.33302     78.74306      0.72544      0.77449      0.80096   2986.00006      0.76065      0.75548    161.13900     13.37500     18.35513      4.31028     18.18797     55.05464    116.40410    193.85920      9.01953      9.25548      9.16844      9.09965
       2346.50280     57.68884     17.50000   2974.44488     78.28125      0.78065      0.80131      0.88943   2969.00001      0.80162      0.80486    161.27400     13.37500     18.35513      4.30512     18.15917     55.04268    116.37830    193.85920      8.99073      9.25548      9.16844      9.09965
       2346.65520     59.60282     17.50000   2977.22127     78.99306      0.84800      0.83707      0.91719   2978.99951      0.85146      0.86773    161.36280     13.37500     18.32973      4.30507     18.18892     55.03075    116.35260    193.85920      9.02007      9.22780      9.16885      9.10193
       2346.80760     59.87239     17.50000   2958.75097     79.63889      0.91734      0.87093      0.96360   2960.99906      0.88975      0.91474    161.46300     13.37500     18.38374      4.30570     18.18797     55.01882    116.32690    193.85920      9.01953      9.25548      9.16844      9.12826
       2346.96000     63.10728     17.50000   2941.00005     79.93056      1.02178      0.94617      1.00111   2936.00030      0.96949      0.99718    161.53200     13.37500     18.38374      4.30598     18.18797     55.00681    116.30100    193.85920      9.01953      9.25548      9.16844      9.12826
       2347.11240     55.26268     17.50000   2947.00020     79.11806      1.14238      1.03069      1.03046   2951.99995      1.05993      1.11610    161.59400     13.37500     18.38513      4.30801     18.18797     54.99480    116.27520    193.85920      9.01953      9.28548      9.16844      9.09965
       2347.26480     57.68884     17.50000   2960.33362     76.96528      1.20134      1.08411      1.05023   2967.99961      1.10101      1.16707    161.74500     13.37500     18.35373      4.31546     18.18797     54.98279    116.24940    193.85920      9.01953      9.22547      9.16844      9.12826
       2347.41720     54.45395     17.50000   2967.99961     75.54861      1.22099      1.09085      1.07932   2970.00041      1.10410      1.18470    161.76740     13.37500     18.41374      4.32137     18.18797     54.97083    116.22360    193.84620      9.01953      9.28548      9.16844      9.12826
       2347.56960     58.76714     17.50000   2942.44333     73.41666      1.21385      1.10296      1.10922   2938.99925      1.11221      1.20139    161.79330     13.37500     18.35513      4.32920     18.18797     54.95878    116.19770    193.85920      9.01953      9.25548      9.16844      9.09965
       2347.72200     59.03672     17.50000   2937.00070     73.33334      1.21940      1.11116      1.11058   2930.00015      1.11992      1.20632    161.80820     13.37500     18.38513      4.33629     18.15917     54.94681    116.17190    193.85920      8.99073      9.28548      9.16844      9.09965
       2347.87440     60.78894     17.50000   2945.99980     74.68750      1.22372      1.12440      1.12633   2954.00075      1.13793      1.21590    161.79240     13.37500     18.35513      4.34520     18.18797     54.93484    116.14610    193.85920      9.01953      9.25548      9.16844      9.09965
       2348.02680     56.47576     17.50000   2930.55543     74.88281      1.21888      1.11908      1.11992   2924.00000      1.13657      1.20958    161.79690     13.37500     18.38374      4.36226     18.18797     54.92287    116.12040    193.85920      9.01953      9.25548      9.16844      9.12826
       2348.17920     53.78002     17.50000   2938.55638     75.31250      1.21171      1.11623      1.11867   2931.00055      1.13207      1.19873    161.75980     13.37500     18.41374      4.36668     18.18797     54.91087    116.09450    193.85920      9.01953      9.28548      9.16844      9.12826
       2348.33160     50.41034     17.50000   2961.55658     74.61111      1.20785      1.11621      1.11801   2960.99906      1.13563      1.19682    161.75790     13.37500     18.41374      4.37555     18.15917     54.89882    116.06870    193.85920      8.99073      9.28548      9.16844      9.12826
       2348.48400     56.55663     17.50000   2972.74982     73.42361      1.20065      1.11511      1.12181   2969.00001      1.13814      1.19600    161.73380     13.37500     18.38513      4.37721     18.18797     54.88681    116.04280    193.85920      9.01953      9.28548      9.16844      9.09965
       2348.63640     62.75684     17.50000   2974.33247     73.31250      1.18491      1.11313      1.11648   2975.00016      1.13559      1.19545    161.70730     13.37500     18.41374      4.38050     18.15917     54.87480    116.01700    193.85920      8.99073      9.28548      9.16844      9.12826
       2348.78880     61.13939     17.50000   2974.66744     76.96528      1.17502      1.11274      1.11593   2978.99951      1.13356      1.18280    161.69050     13.37500     18.38374      4.38194     18.18797     54.86279    115.99120    193.85920      9.01953      9.25548      9.16844      9.12826
       2348.94120     56.77230     17.50000   2962.11186     78.60416      1.17119      1.11296      1.10854   2959.00050      1.13705      1.17740    161.62020     13.37500     18.41374      4.38789     18.18797     54.85078    115.96540    193.85920      9.01953      9.28548      9.16844      9.12826
       2349.09360     48.14592     17.50000   2966.33377     79.04861      1.16003      1.10716      1.10409   2975.00016      1.12737      1.16114    161.63950     13.37500     18.41374      4.38958     18.21676     54.83874    115.93950    193.85920      9.04831      9.28548      9.16844      9.12826
       2349.24600     50.03294     17.50000   2952.11011     78.50694      1.11968      1.06315      1.06970   2960.99906      1.08975      1.11524    161.65430     13.37500     18.35513      4.39353     18.18797     54.82664    115.91360    193.85920      9.01953      9.25548      9.16844      9.09965
       2349.39840     52.29736     17.50000   2954.44363     80.34722      1.06826      1.01083      1.02916   2951.99995      1.03699      1.05588    161.66060     13.37500     18.41374      4.39712     18.18797     54.81468    115.88780    193.85920      9.01953      9.28548      9.16844      9.12826
       2349.55080     58.36278     17.50000   2948.33332     79.96875      1.05011      0.99401      1.00167   2955.50023      1.02672      1.03693    161.70590     13.37500     18.41374      4.39930     18.18797     54.80263    115.86190    193.85920      9.01953      9.28548      9.16844      9.12826
       2349.70320     57.28448     17.50000   2940.62462     79.12500      1.02416      0.97697      0.98059   2938.50018      1.00999      1.01231    161.79920     13.37500     18.38374      4.40379     18.18797     54.79058    115.83610    193.85920      9.01953      9.25548      9.16844      9.12826
       2349.85560     52.70173     17.50000   2950.66684     77.74306      1.00524      0.96091      0.95955   2949.99915      0.99205      0.99403    161.85590     13.37500     18.38513      4.40566     18.18797     54.77857    115.81030    193.85920      9.01953      9.28548      9.16844      9.09965
       2350.00800     49.33205     17.50000   2941.44517     77.37500      0.96910      0.93403      0.93143   2947.00020      0.96155      0.97013    161.88240     13.37500     18.41234      4.40743     18.18797     54.76656    115.78440    193.85920      9.01953      9.25548      9.16844      9.15686
