~VERSION INFORMATION 
VERS  .    2.0                                     :CWLS Log ASCII Standard - VERSION 2.0
WRAP  .    NO                                      :One Line per Depth step
PROD  .    Schlumberger Technology Corp.           :LAS Producer
PROG  .    Horizon LASWriter 7.3.92069.3100        :LAS Program name and version
SOURCE.    1A-Log[6]/Up                            :Run&Pass Information
CREA  .    04/30/2018                              :LAS Creation date {MM/DD/YYYY}
#--------------------------------------------------
~WELL INFORMATION 
#MNEM           .UNIT                      DATA            :DESCRIPTION
#----            ------          --------------            -----------------------------
STRT            .m                    979.93200            :START DEPTH
STOP            .m                   3037.94160            :STOP DEPTH
STEP            .m                       0.1524            :STEP
NULL            .                       -999.25            :NULL VALUE
COMP            .                PETROLEOS MEXICANOS       :COMPANY
WELL            .                  MADREFIL 131            :WELL NAME
FLD             .                      MADREFIL            :FIELD NAME
RIGN            .                                          :Rig Name
RIGTYP          .                                          :Rig Type
SON             .                                          :Service Order Number
SRVC            .                  Schlumberger            :SERVICE COMPANY
DATE            .                    04/30/2018            :LOG DATE(Composite Date for Composite LAP) (MM/DD/YYYY)
CLAB            .                       County:            :County Label
CNTY            .                      VERACRUZ            :COUNTY
SLAB            .                       Equipo:            :State/Province Label
STAT            .                      ICMA-879            :STATE or PROVINCE
PROV            .                      ICMA-879            :STATE or PROVINCE
CTRY            .                                          :COUNTRY
CONT_REGION     .                                          :Continent Region
SECT            .                                          :Section
TOWN            .                                          :Township
RANG            .                                          :Range
API             .                                          :API NUMBER
UWI             .                                          :UNIQUE WELL ID
LUL             .                                          :Logging Unit Location
LUN             .                                          :Logging Unit Number
LOC             .                PERA MADREFIL-61          :FIELD LOCATION
FL1             .                                          :Field Location Line 1
FL2             .                                          :Field Location Line 2
LATI            .deg             18° 10' 19.542" N         :LATITUDE
LONG            .deg             93° 20' 3.618" W          :LONGITUDE
PDAT            .                            GL            :Local Permanent Datum
LMF             .                            DF            :Logging Measured From
APD             .m                        12.00            :Elevation of Depth Reference (LMF) Above Permanent Datum
EPD             .m                        20.01            :Elevation of Permanent Datum (PDAT) above Mean Sea Level
EKB             .m                      -999.25            :Elevation of Kelly Bushing Above Permanent Datum
EDF             .m                        12.00            :Elevation of Drill Floor Above Permanent Datum
EGL             .m                         0.00            :Elevation of Ground Level Above Permanent Datum
ECF             .m                      -999.25            :Elevation of Casing Flange above Permanent Datum
#--------------------------------------------------
~CURVE INFORMATION
#MNEM           .UNIT                  API CODE            :DESCRIPTION
#----            ------          --------------            -----------------------------
DEPT            .m                                         :                                                        Depth Index
GR              .gAPI                                      :        (SGT-N)                 (6in)                   Calibrated Gamma Ray
BS              .in                                        :(RT)    (Borehole)              (6in)                   Bit Size
TENS            .lbf                                       :        (WLWorkflow)            (6in)                   Cable Tension
SP              .mV                                        :        (AIT-M)                 (6in)                   Spontaneous Potential
AT90            .ohm.m                                     :        (AIT-M)                 (3in)                   Array Induction Two Foot Resistivity A90
AT20            .ohm.m                                     :        (AIT-M)                 (3in)                   Array Induction Two Foot Resistivity A20
AT10            .ohm.m                                     :        (AIT-M)                 (3in)                   Array Induction Two Foot Resistivity A10
TENS            .lbf                                       :        (WLWorkflow)            (1in)                   Cable Tension
AT30            .ohm.m                                     :        (AIT-M)                 (3in)                   Array Induction Two Foot Resistivity A30
AT60            .ohm.m                                     :        (AIT-M)                 (3in)                   Array Induction Two Foot Resistivity A60
HAZIM           .deg                                       :        (GPIT-C[1])             (6in)                   Memorized Hole Azimuth
FCD             .in                                        :(RT)    (Borehole)              (6in)                   Future Casing Diameter
HD2             .in                                        :        (PPC-B)                 (6in)                   Hole Diameter 2
DeviationDEVI   .deg                                       :        (GPIT-C[1])             (6in)                   Memorized Sonde Deviation
HD1             .in                                        :        (PPC-B)                 (6in)                   Hole Diameter 1
ICV             .m3                                        :(RT)    (Borehole)              (6in)                   Integrated Cement Volume
IHV             .m3                                        :(RT)    (Borehole)              (6in)                   Integrated Hole Volume
RB              .deg                                       :        (PPC-B)                 (6in)                   Relative Bearing
RD1             .in                                        :        (PPC-B)                 (6in)                   Radius 1
RD2             .in                                        :        (PPC-B)                 (6in)                   Radius 2
RD3             .in                                        :        (PPC-B)                 (6in)                   Radius 3
RD4             .in                                        :        (PPC-B)                 (6in)                   Radius 4
#-------------------------------------------------------------
#            DEPT           GR           BS         TENS           SP         AT90         AT20         AT10         TENS         AT30         AT60        HAZIM          FCD          HD2 DeviationDEVI          HD1          ICV          IHV           RB          RD1          RD2          RD3          RD4 
#                      (SGT-N)   (Borehole)  (WLWorkflo)      (AIT-M)      (AIT-M)      (AIT-M)      (AIT-M)  (WLWorkflo)      (AIT-M)      (AIT-M)  (GPIT-C[1])   (Borehole)      (PPC-B)  (GPIT-C[1])      (PPC-B)   (Borehole)   (Borehole)      (PPC-B)      (PPC-B)      (PPC-B)      (PPC-B)      (PPC-B) 
#                                      (RT)                                                                                                                              (RT)                                                (RT)         (RT)                                                                  
#                        (6in)        (6in)        (6in)        (6in)        (3in)        (3in)        (3in)        (1in)        (3in)        (3in)        (6in)        (6in)        (6in)        (6in)        (6in)        (6in)        (6in)        (6in)        (6in)        (6in)        (6in)        (6in) 
~ASCII
        979.93200     23.68882      -999.25   1665.99995      -999.25      0.16666      0.48615   1950.00000   1663.00010      0.32657      0.21698      -999.25      -999.25     19.20446      -999.25     19.08881      -999.25      -999.25    189.11820      9.50732      9.64650      9.58149      9.55796
        980.08440     22.47573     26.00000   1675.22229     19.87500      0.16588      0.47920   1950.00000   1674.00000      0.33025      0.21724    269.23900     13.37500     19.20446      0.47919     19.11737    226.57170    411.30890    189.11820      9.53587      9.64650      9.58149      9.55796
        980.23680     28.67594     26.00000   1706.62495     20.65278      0.16755      0.46827   1950.00000   1709.00006      0.32873      0.21867    266.31070     13.37500     19.20446      0.47634     19.06025    226.57170    411.30890    189.11820      9.47876      9.64650      9.58149      9.55796
        980.38920     30.02381     26.00000   1688.99993     21.02344      0.16721      0.44754   1950.00000   1682.00005      0.32401      0.21743    262.82070     13.37500     19.20446      0.47254     19.11737    226.57170    411.30890    189.11820      9.53587      9.64650      9.58149      9.55796
        980.54160     34.87614     26.00000   1674.55551     21.31250      0.16651      0.43111   1950.00000   1665.00000      0.32267      0.21580    258.73460     13.37500     19.17463      0.46697     19.14674    226.57170    411.30890    189.11820      9.53587      9.61667      9.61087      9.55796
        980.69400     29.48466     26.00000   1684.87491     21.56944      0.16525      0.41995   1950.00000   1683.00000      0.31963      0.21184    253.87140     13.37500     19.17463      0.45909     19.14674    226.57170    411.30890    189.10960      9.53587      9.61667      9.61087      9.55796
        980.84640     31.91083     26.00000   1702.12495     22.04688      0.16401      0.40534   1950.00000   1700.00006      0.31449      0.21123    248.04470     13.37500     19.14621      0.44930     19.14674    226.57170    411.30890    189.11820      9.53587      9.61667      9.61087      9.52954
        980.99880     26.75522     26.00000   1698.00016     22.55469      0.16403      0.39216   1950.00000   1701.00001      0.30937      0.21150    232.61260     13.37500     19.20446      0.42272     19.14674    226.57170    411.30890    189.11820      9.53587      9.64650      9.61087      9.55796
        981.15120     28.91182     26.00000   1681.25009     23.51389      0.16113      0.38575   1950.00000   1682.00005      0.30608      0.20738    222.83040     13.37500     19.14621      0.40887     19.14674    226.57170    411.30890    189.11820      9.53587      9.61667      9.61087      9.52954
        981.30360     28.10309     26.00000   1701.12500     25.00781      0.15935      0.37947   1950.00000   1704.00008      0.30382      0.20485    211.39780     13.37500     19.20446      0.39883     19.11737    226.57170    411.30890    189.11820      9.53587      9.64650      9.58149      9.55796
        981.45600     32.61846     26.00000   1721.87509     26.18750      0.15902      0.37250   1950.00000   1728.99996      0.30415      0.20524    198.90200     13.37500     19.15002      0.39681     19.14680    226.57170    411.30890    189.11820      9.53593      9.61862      9.61087      9.53140
        981.60840     30.69774     26.00000   1690.44455     27.22917      0.15723      0.37172   1950.00000   1684.99991      0.30232      0.20263    186.20900     13.37500     19.14621      0.40616     19.14674    226.57170    411.30890    189.11820      9.53587      9.61667      9.61087      9.52954
        981.76080     27.46286     26.00000   1686.00008     28.43750      0.15450      0.37297   1950.00000   1683.00000      0.29647      0.19877    174.68530     13.37500     19.17463      0.42690     19.14674    226.57170    411.30890    189.11820      9.53587      9.61667      9.61087      9.55796
        981.91320     23.95839     26.00000   1695.55558     30.02344      0.15270      0.37153   1950.00000   1702.99991      0.29560      0.19773    165.11350     13.37500     19.14621      0.45553     19.14674    226.57170    411.30890    189.11820      9.53587      9.61667      9.61087      9.52954
        982.06560     25.47475     26.00000   1678.12502     31.20833      0.15126      0.37481   1950.00000   1671.50013      0.29459      0.19409    158.26870     13.37500     19.17463      0.48590     19.14674    226.57170    411.30890    189.11820      9.53587      9.61667      9.61087      9.55796
        982.21800     26.82262     26.00000   1691.62502     33.35156      0.14965      0.37041   1950.00000   1692.00001      0.29039      0.19375    154.00510     13.37500     19.14621      0.51172     19.17612    226.57170    411.30890    189.11820      9.53587      9.61667      9.64024      9.52954
        982.37040     27.32807     26.00000   1688.33337     35.14844      0.14944      0.36111   1950.00000   1687.00003      0.29127      0.19489    153.56450     13.37500     19.11637      0.53074     19.11819    226.57170    411.30890    189.11820      9.50732      9.58683      9.61087      9.52954
        982.52280     27.19328     26.00000   1697.12498     35.29688      0.15154      0.33929   1950.00000   1694.00013      0.29953      0.19932    156.92810     13.37500     19.11637      0.52356     19.17612    226.57170    411.30890    189.11820      9.53587      9.58683      9.64024      9.52954
        982.67520     25.84541     26.00000   1684.24994     35.48611      0.15503      0.34546   1950.00000   1684.99991      0.29338      0.20388    162.79420     13.37500     19.11637      0.50830     19.14674    226.57170    411.30890    189.11820      9.53587      9.58683      9.61087      9.52954
        982.82760     22.81270     26.00000   1665.87496     36.28906      0.15270      0.33900   1950.00000   1664.00005      0.31523      0.20214    170.73730     13.37500     19.14761      0.49116     19.14674    226.57170    411.30890    189.11820      9.53587      9.64650      9.61087      9.50111
        982.98000     22.81270     26.00000   1674.44445     36.02778      0.16020      0.32914   1950.00000   1677.00008      0.31907      0.21602    180.57340     13.37500     19.14621      0.47547     19.14674    226.57170    411.30890    189.11820      9.53587      9.61667      9.61087      9.52954
        983.13240     25.50844     26.00000   1699.25009     37.73438      0.15276      0.28614   1950.00000   1710.00001      0.28016      0.19839    191.59320     13.37500     19.14621      0.46735     19.14674    226.57170    411.30890    189.11820      9.53587      9.61667      9.61087      9.52954
        983.28480     25.81171     26.00000   1672.62507     39.78125      0.15154      0.25977   1950.00000   1672.00010      0.27033      0.19072    203.23720     13.37500     19.14621      0.46667     19.14674    226.57170    411.30890    189.11820      9.53587      9.61667      9.61087      9.52954
        983.43720     26.89001     26.00000   1677.11113     42.00000      0.15478      0.25500   1950.00000   1683.99996      0.26817      0.18699    214.72560     13.37500     19.14621      0.47460     19.17612    226.57170    411.30890    188.78050      9.53587      9.61667      9.64024      9.52954
        983.58960     25.27256     26.00000   1675.87514     45.14063      0.15457      0.26637   1950.00000   1679.99993      0.26175      0.18441    225.55580     13.37500     19.14621      0.48874     19.14674    226.57170    411.30890    189.11820      9.53587      9.61667      9.61087      9.52954
        983.74200     27.69873     26.00000   1664.75001     48.93056      0.15021      0.28035   1950.00000   1663.00010      0.25682      0.17326    235.49770     13.37500     19.14621      0.50584     19.14674    226.57170    411.30890    189.11820      9.53587      9.61667      9.61087      9.52954
        983.89440     27.42916     26.00000   1682.55556     53.11719      0.14665      0.30102   1950.00000   1683.00000      0.24730      0.16270    253.17400     13.37500     19.14621      0.53011     19.08963    226.57170    411.30890    189.11820      9.47876      9.61667      9.61087      9.52954
