~VERSION INFORMATION 
VERS  .    2.0                                     :CWLS Log ASCII Standard - VERSION 2.0
WRAP  .    NO                                      :One Line per Depth step
PROD  .    Schlumberger Technology Corp.           :LAS Producer
PROG  .    Horizon LASWriter 7.3.92069.3100        :LAS Program name and version
SOURCE.    1A-Log[6]/Up                            :Run&Pass Information
CREA  .    04/30/2018                              :LAS Creation date {MM/DD/YYYY}
#--------------------------------------------------
~WELL INFORMATION 
#MNEM           .UNIT                      DATA            :DESCRIPTION
#----            ------          --------------            -----------------------------
STRT            .m                    979.93200            :START DEPTH
STOP            .m                   3037.94160            :STOP DEPTH
STEP            .m                       0.1524            :STEP
NULL            .                       -999.25            :NULL VALUE
COMP            .                PETROLEOS MEXICANOS       :COMPANY
WELL            .                  MADREFIL 131            :WELL NAME
FLD             .                      MADREFIL            :FIELD NAME
RIGN            .                                          :Rig Name
RIGTYP          .                                          :Rig Type
SON             .                                          :Service Order Number
SRVC            .                  Schlumberger            :SERVICE COMPANY
DATE            .                    04/30/2018            :LOG DATE(Composite Date for Composite LAP) (MM/DD/YYYY)
CLAB            .                       County:            :County Label
CNTY            .                      VERACRUZ            :COUNTY
SLAB            .                       Equipo:            :State/Province Label
STAT            .                      ICMA-879            :STATE or PROVINCE
PROV            .                      ICMA-879            :STATE or PROVINCE
CTRY            .                                          :COUNTRY
CONT_REGION     .                                          :Continent Region
SECT            .                                          :Section
TOWN            .                                          :Township
RANG            .                                          :Range
API             .                                          :API NUMBER
UWI             .                                          :UNIQUE WELL ID
LUL             .                                          :Logging Unit Location
LUN             .                                          :Logging Unit Number
LOC             .                PERA MADREFIL-61          :FIELD LOCATION
FL1             .                                          :Field Location Line 1
FL2             .                                          :Field Location Line 2
LATI            .deg             18° 10' 19.542" N         :LATITUDE
LONG            .deg             93° 20' 3.618" W          :LONGITUDE
PDAT            .                            GL            :Local Permanent Datum
LMF             .                            DF            :Logging Measured From
APD             .m                        12.00            :Elevation of Depth Reference (LMF) Above Permanent Datum
EPD             .m                        20.01            :Elevation of Permanent Datum (PDAT) above Mean Sea Level
EKB             .m                      -999.25            :Elevation of Kelly Bushing Above Permanent Datum
EDF             .m                        12.00            :Elevation of Drill Floor Above Permanent Datum
EGL             .m                         0.00            :Elevation of Ground Level Above Permanent Datum
ECF             .m                      -999.25            :Elevation of Casing Flange above Permanent Datum
#--------------------------------------------------
~CURVE INFORMATION
#MNEM           .UNIT                  API CODE            :DESCRIPTION
#----            ------          --------------            -----------------------------
DEPT            .m                                         :                                                        Depth Index
GR              .gAPI                                      :        (SGT-N)                 (6in)                   Calibrated Gamma Ray
BS              .in                                        :(RT)    (Borehole)              (6in)                   Bit Size
TENS            .lbf                                       :        (WLWorkflow)            (6in)                   Cable Tension
SP              .mV                                        :        (AIT-M)                 (6in)                   Spontaneous Potential
AT90            .ohm.m                                     :        (AIT-M)                 (3in)                   Array Induction Two Foot Resistivity A90
AT20            .ohm.m                                     :        (AIT-M)                 (3in)                   Array Induction Two Foot Resistivity A20
AT10            .ohm.m                                     :        (AIT-M)                 (3in)                   Array Induction Two Foot Resistivity A10
TENS            .lbf                                       :        (WLWorkflow)            (1in)                   Cable Tension
AT30            .ohm.m                                     :        (AIT-M)                 (3in)                   Array Induction Two Foot Resistivity A30
AT60            .ohm.m                                     :        (AIT-M)                 (3in)                   Array Induction Two Foot Resistivity A60
HAZIM           .deg                                       :        (GPIT-C[1])             (6in)                   Memorized Hole Azimuth
FCD             .in                                        :(RT)    (Borehole)              (6in)                   Future Casing Diameter
HD2             .in                                        :        (PPC-B)                 (6in)                   Hole Diameter 2
DeviationDEVI   .deg                                       :        (GPIT-C[1])             (6in)                   Memorized Sonde Deviation
HD1             .in                                        :        (PPC-B)                 (6in)                   Hole Diameter 1
ICV             .m3                                        :(RT)    (Borehole)              (6in)                   Integrated Cement Volume
IHV             .m3                                        :(RT)    (Borehole)              (6in)                   Integrated Hole Volume
RB              .deg                                       :        (PPC-B)                 (6in)                   Relative Bearing
RD1             .in                                        :        (PPC-B)                 (6in)                   Radius 1
RD2             .in                                        :        (PPC-B)                 (6in)                   Radius 2
RD3             .in                                        :        (PPC-B)                 (6in)                   Radius 3
RD4             .in                                        :        (PPC-B)                 (6in)                   Radius 4
#-------------------------------------------------------------
#            DEPT           GR           BS         TENS           SP         AT90         AT20         AT10         TENS         AT30         AT60        HAZIM          FCD          HD2 DeviationDEVI          HD1          ICV          IHV           RB          RD1          RD2          RD3          RD4 
#                      (SGT-N)   (Borehole)  (WLWorkflo)      (AIT-M)      (AIT-M)      (AIT-M)      (AIT-M)  (WLWorkflo)      (AIT-M)      (AIT-M)  (GPIT-C[1])   (Borehole)      (PPC-B)  (GPIT-C[1])      (PPC-B)   (Borehole)   (Borehole)      (PPC-B)      (PPC-B)      (PPC-B)      (PPC-B)      (PPC-B) 
#                                      (RT)                                                                                                                              (RT)                                                (RT)         (RT)                                                                  
#                        (6in)        (6in)        (6in)        (6in)        (3in)        (3in)        (3in)        (1in)        (3in)        (3in)        (6in)        (6in)        (6in)        (6in)        (6in)        (6in)        (6in)        (6in)        (6in)        (6in)        (6in)        (6in) 
~ASCII
# ...
       2481.83400     50.14077     17.50000   3101.44395     84.61806      0.32192      0.38053      0.42738   3093.00012      0.35687      0.32086    160.98300     13.37500     18.09178      7.86681     18.27743     43.94114     93.00957    193.52110      8.99073      9.13537      9.28669      8.95641
       2481.98640     44.66842     17.50000   3103.77746     84.82813      0.33149      0.37148      0.41145   3095.99907      0.34856      0.32082    161.00340     13.37500     18.06172      7.87468     18.30622     43.92942     92.98403    193.52110      9.01953      9.10531      9.28669      8.95641
       2482.13880     44.66842     17.50000   3118.62385     84.13194      0.33573      0.37244      0.40722   3110.00017      0.35188      0.32931    161.04100     13.37500     18.03305      7.87615     18.30622     43.91770     92.95850    193.52110      9.01953      9.10531      9.28669      8.92774
       2482.29120     47.36416     17.50000   3117.00073     83.70834      0.35026      0.39478      0.41999   3108.99977      0.36979      0.34969    161.10880     13.37500     18.09178      7.88279     18.27743     43.90602     92.93300    193.52110      8.99073      9.13537      9.28669      8.95641
       2482.44360     51.48864     17.50000   3138.33285     81.48438      0.37756      0.43250      0.46399   3141.99948      0.40233      0.38451    161.13570     13.37500     18.29649      7.88544     18.27743     43.89429     92.90746    193.52110      8.99073      9.22547      9.28669      9.07102
       2482.59600     53.64523     17.50000   3151.49991     81.50694      0.41566      0.47448      0.51607   3145.49975      0.44281      0.42844    161.20470     13.37500     18.26786      7.88982     18.30622     43.88228     92.88164    193.52110      9.01953      9.22547      9.28669      9.04239
       2482.74840     51.97387     17.50000   3159.99993     81.75000      0.46504      0.53444      0.58211   3158.99953      0.49847      0.48997    161.19880     13.37500     18.29649      7.88952     18.27743     43.87026     92.85580    193.52110      8.99073      9.22547      9.28669      9.07102
       2482.90080     57.63492     17.50000   3143.33260     81.45139      0.53810      0.60429      0.65875   3134.99893      0.57381      0.56113    161.16500     13.37500     18.29649      7.88903     18.27743     43.85825     92.82998    193.52110      8.99073      9.22547      9.28669      9.07102
       2483.05320     60.60024     17.50000   3137.88997     82.44531      0.59025      0.63561      0.74891   3143.49896      0.61786      0.61622    161.12150     13.37500     18.29649      7.88661     18.27743     43.84623     92.80415    193.52110      8.99073      9.22547      9.28669      9.07102
       2483.20560     64.23949     17.50000   3135.50025     82.34722      0.65726      0.69047      0.82301   3137.49880      0.68304      0.68318    161.07100     13.37500     18.26786      7.88349     18.30622     43.83421     92.77832    193.52110      9.01953      9.22547      9.28669      9.04239
       2483.35800     56.15228     17.50000   3132.44510     83.02084      0.74697      0.75946      0.90557   3128.00063      0.75582      0.76543    160.98240     13.37500     18.33112      7.87520     18.30622     43.82220     92.75249    193.52110      9.01953      9.25779      9.28669      9.07333
       2483.51040     54.26525     17.50000   3131.99998     82.76389      0.85358      0.84795      0.98131   3129.99918      0.84472      0.86216    160.94070     13.37500     18.29649      7.87215     18.30622     43.81009     92.72658    193.52110      9.01953      9.22547      9.28669      9.07102
       2483.66280     50.86862     17.50000   3133.22294     82.30556      0.94152      0.90915      1.03249   3134.00078      0.91102      0.93872    160.91730     13.37500     18.29649      7.87054     18.30622     43.79804     92.70071    193.52110      9.01953      9.22547      9.28669      9.07102
       2483.81520     54.91223     17.50000   3122.55575     82.48438      0.98018      0.94180      1.05124   3113.99953      0.93338      0.97294    160.89210     13.37500     18.26786      7.86728     18.30622     43.78598     92.67484    193.52110      9.01953      9.22547      9.28669      9.04239
       2483.96760     55.99053     17.50000   3130.99958     84.24306      0.99793      0.94523      1.02964   3127.00023      0.93475      0.98535    160.88720     13.37500     18.29649      7.86768     18.30695     43.77397     92.64901    193.52110      8.99073      9.22547      9.31622      9.07102
       2484.12000     58.22799     17.50000   3126.55511     83.68750      0.96578      0.93766      0.99036   3121.00008      0.91933      0.97306    160.85390     13.37500     18.29649      7.86898     18.30622     43.76191     92.62314    193.52110      9.01953      9.22547      9.28669      9.07102
       2484.27240     58.22799     17.50000   3114.99993     84.20139      0.96035      0.92834      0.97621   3108.99977      0.91821      0.97798    160.82800     13.37500     18.32650      7.86846     18.27743     43.74986     92.59727    193.52110      8.99073      9.25548      9.28669      9.07102
       2484.42480     56.50272     17.50000   3103.33234     83.43750      0.97024      0.94047      0.98847   3101.00107      0.93564      1.00309    160.80320     13.37500     18.29649      7.86756     18.33575     43.73780     92.57140    193.52110      9.01953      9.22547      9.31622      9.07102
       2484.57720     54.34613     17.50000   3084.55630     83.14063      0.99156      0.95744      1.00977   3078.00087      0.95791      1.03052    160.78770     13.37500     18.29649      7.86696     18.27743     43.72571     92.54549    193.52110      8.99073      9.22547      9.28669      9.07102
       2484.72960     54.07656     17.50000   3105.62539     83.65972      1.01377      0.97643      1.04279   3106.00082      0.98811      1.05905    160.76130     13.37500     18.29649      7.86692     18.27743     43.71369     92.51965    193.52110      8.99073      9.22547      9.28669      9.07102
       2484.88200     54.99310     17.50000   3101.77891     83.89584      1.05742      0.99969      1.07300   3097.50080      1.01837      1.09882    160.74780     13.37500     18.29649      7.86788     18.27743     43.70168     92.49383    193.52110      8.99073      9.22547      9.28669      9.07102
       2485.03440     55.80183     17.50000   3106.33354     82.70139      1.10653      1.02028      1.10677   3096.99947      1.04961      1.13439    160.71710     13.37500     18.29649      7.86943     18.30622     43.68967     92.46800    193.52110      9.01953      9.22547      9.28669      9.07102
       2485.18680     56.39489     17.50000   3120.77752     82.12500      1.15422      1.04698      1.12212   3119.99968      1.08275      1.17271    160.62870     13.37500     18.32650      7.87650     18.30622     43.67761     92.44213    193.52110      9.01953      9.25548      9.28669      9.07102
       2485.33920     59.62978     17.50000   3133.22294     82.02344      1.19732      1.07191      1.14262   3128.00063      1.11082      1.21164    160.57610     13.37500     18.30113      7.88140     18.33582     43.66552     92.41622    193.52110      9.04883      9.22780      9.28700      9.07333
       2485.49160     59.36021     17.50000   3148.22219     81.69444      1.23198      1.09091      1.14837   3151.00083      1.13163      1.24208    160.51120     13.37500     18.29649      7.88395     18.30622     43.65342     92.39030    193.52110      9.01953      9.22547      9.28669      9.07102
       2485.64400     63.34990     17.50000   3156.62555     81.91666      1.24406      1.09832      1.14177   3158.50046      1.13854      1.25292    160.42570     13.37500     18.29649      7.88967     18.30622     43.64136     92.36443    193.52110      9.01953      9.22547      9.28669      9.07102
       2485.79640     63.80817     17.50000   3144.55556     79.20139      1.26359      1.10475      1.14134   3135.99933      1.14682      1.26835    160.32130     13.37500     18.29649      7.89358     18.30622     43.62931     92.33856    193.52110      9.01953      9.22547      9.28669      9.07102
