~VERSION INFORMATION 
VERS  .    2.0                                     :CWLS Log ASCII Standard - VERSION 2.0
WRAP  .    NO                                      :One Line per Depth step
PROD  .    Schlumberger Technology Corp.           :LAS Producer
PROG  .    Horizon LASWriter 7.3.92069.3100        :LAS Program name and version
SOURCE.    1A-Log[6]/Up                            :Run&Pass Information
CREA  .    04/30/2018                              :LAS Creation date {MM/DD/YYYY}
#--------------------------------------------------
~WELL INFORMATION 
#MNEM           .UNIT                      DATA            :DESCRIPTION
#----            ------          --------------            -----------------------------
STRT            .m                    979.93200            :START DEPTH
STOP            .m                   3037.94160            :STOP DEPTH
STEP            .m                       0.1524            :STEP
NULL            .                       -999.25            :NULL VALUE
COMP            .                PETROLEOS MEXICANOS       :COMPANY
WELL            .                  MADREFIL 131            :WELL NAME
FLD             .                      MADREFIL            :FIELD NAME
RIGN            .                                          :Rig Name
RIGTYP          .                                          :Rig Type
SON             .                                          :Service Order Number
SRVC            .                  Schlumberger            :SERVICE COMPANY
DATE            .                    04/30/2018            :LOG DATE(Composite Date for Composite LAP) (MM/DD/YYYY)
CLAB            .                       County:            :County Label
CNTY            .                      VERACRUZ            :COUNTY
SLAB            .                       Equipo:            :State/Province Label
STAT            .                      ICMA-879            :STATE or PROVINCE
PROV            .                      ICMA-879            :STATE or PROVINCE
CTRY            .                                          :COUNTRY
CONT_REGION     .                                          :Continent Region
SECT            .                                          :Section
TOWN            .                                          :Township
RANG            .                                          :Range
API             .                                          :API NUMBER
UWI             .                                          :UNIQUE WELL ID
LUL             .                                          :Logging Unit Location
LUN             .                                          :Logging Unit Number
LOC             .                PERA MADREFIL-61          :FIELD LOCATION
FL1             .                                          :Field Location Line 1
FL2             .                                          :Field Location Line 2
LATI            .deg             18° 10' 19.542" N         :LATITUDE
LONG            .deg             93° 20' 3.618" W          :LONGITUDE
PDAT            .                            GL            :Local Permanent Datum
LMF             .                            DF            :Logging Measured From
APD             .m                        12.00            :Elevation of Depth Reference (LMF) Above Permanent Datum
EPD             .m                        20.01            :Elevation of Permanent Datum (PDAT) above Mean Sea Level
EKB             .m                      -999.25            :Elevation of Kelly Bushing Above Permanent Datum
EDF             .m                        12.00            :Elevation of Drill Floor Above Permanent Datum
EGL             .m                         0.00            :Elevation of Ground Level Above Permanent Datum
ECF             .m                      -999.25            :Elevation of Casing Flange above Permanent Datum
#--------------------------------------------------
~CURVE INFORMATION
#MNEM           .UNIT                  API CODE            :DESCRIPTION
#----            ------          --------------            -----------------------------
DEPT            .m                                         :                                                        Depth Index
GR              .gAPI                                      :        (SGT-N)                 (6in)                   Calibrated Gamma Ray
BS              .in                                        :(RT)    (Borehole)              (6in)                   Bit Size
TENS            .lbf                                       :        (WLWorkflow)            (6in)                   Cable Tension
SP              .mV                                        :        (AIT-M)                 (6in)                   Spontaneous Potential
AT90            .ohm.m                                     :        (AIT-M)                 (3in)                   Array Induction Two Foot Resistivity A90
AT20            .ohm.m                                     :        (AIT-M)                 (3in)                   Array Induction Two Foot Resistivity A20
AT10            .ohm.m                                     :        (AIT-M)                 (3in)                   Array Induction Two Foot Resistivity A10
TENS            .lbf                                       :        (WLWorkflow)            (1in)                   Cable Tension
AT30            .ohm.m                                     :        (AIT-M)                 (3in)                   Array Induction Two Foot Resistivity A30
AT60            .ohm.m                                     :        (AIT-M)                 (3in)                   Array Induction Two Foot Resistivity A60
HAZIM           .deg                                       :        (GPIT-C[1])             (6in)                   Memorized Hole Azimuth
FCD             .in                                        :(RT)    (Borehole)              (6in)                   Future Casing Diameter
HD2             .in                                        :        (PPC-B)                 (6in)                   Hole Diameter 2
DeviationDEVI   .deg                                       :        (GPIT-C[1])             (6in)                   Memorized Sonde Deviation
HD1             .in                                        :        (PPC-B)                 (6in)                   Hole Diameter 1
ICV             .m3                                        :(RT)    (Borehole)              (6in)                   Integrated Cement Volume
IHV             .m3                                        :(RT)    (Borehole)              (6in)                   Integrated Hole Volume
RB              .deg                                       :        (PPC-B)                 (6in)                   Relative Bearing
RD1             .in                                        :        (PPC-B)                 (6in)                   Radius 1
RD2             .in                                        :        (PPC-B)                 (6in)                   Radius 2
RD3             .in                                        :        (PPC-B)                 (6in)                   Radius 3
RD4             .in                                        :        (PPC-B)                 (6in)                   Radius 4
#-------------------------------------------------------------
#            DEPT           GR           BS         TENS           SP         AT90         AT20         AT10         TENS         AT30         AT60        HAZIM          FCD          HD2 DeviationDEVI          HD1          ICV          IHV           RB          RD1          RD2          RD3          RD4 
#                      (SGT-N)   (Borehole)  (WLWorkflo)      (AIT-M)      (AIT-M)      (AIT-M)      (AIT-M)  (WLWorkflo)      (AIT-M)      (AIT-M)  (GPIT-C[1])   (Borehole)      (PPC-B)  (GPIT-C[1])      (PPC-B)   (Borehole)   (Borehole)      (PPC-B)      (PPC-B)      (PPC-B)      (PPC-B)      (PPC-B) 
#                                      (RT)                                                                                                                              (RT)                                                (RT)         (RT)                                                                  
#                        (6in)        (6in)        (6in)        (6in)        (3in)        (3in)        (3in)        (1in)        (3in)        (3in)        (6in)        (6in)        (6in)        (6in)        (6in)        (6in)        (6in)        (6in)        (6in)        (6in)        (6in)        (6in) 
~ASCII
# ...
       1115.72040     40.77307     17.50000   1843.33352    117.10160      0.22871      0.22647      0.24984   1844.00008      0.21742      0.22001    251.86400     13.37500     19.32089      0.43562     19.92606    203.97590    376.87380    189.11820      9.93436      9.70613      9.99170      9.61476
       1115.87280     36.72946     17.50000   1866.12510    116.93750      0.25141      0.24892      0.27813   1878.00018      0.23919      0.24133    255.13210     13.37500     19.37765      0.42288     19.98364    203.96000    376.84410    189.11820      9.96273      9.70613     10.02091      9.67153
       1116.02520     42.66010     17.50000   1844.25006    116.14840      0.26821      0.26549      0.30590   1841.00000      0.25435      0.25644    255.94460     13.37500     19.43936      0.41832     20.15535    203.94390    376.81420    189.11820     10.04735      9.73777     10.10800      9.70159
       1116.17760     43.40142     17.50000   1828.11126    115.85420      0.28078      0.27553      0.31920   1821.00010      0.26425      0.26750    256.62320     13.37500     19.61017      0.42296     20.38685    203.92750    376.78390    189.11820     10.13272      9.82525     10.25412      9.78492
       1116.33000     44.00796     17.50000   1831.75001    115.67190      0.28655      0.28150      0.32295   1827.00002      0.27090      0.27289    255.36400     13.37500     19.61354      0.44466     20.47133    203.91040    376.75310    189.11820     10.18872      9.82700     10.28260      9.78654
       1116.48240     38.61648     17.50000   1828.99992    114.54690      0.28602      0.28186      0.32003   1827.00002      0.26992      0.27071    253.65990     13.37500     19.72630      0.46813     20.44424    203.89320    376.72210    189.11820     10.16101      9.88474     10.28322      9.84155
       1116.63480     37.53818     17.50000   1834.62509    113.36110      0.27865      0.27535      0.30944   1836.00003      0.26311      0.26362    251.41370     13.37500     19.75459      0.49079     20.61542    203.87590    376.69090    189.11820     10.27404      9.88474     10.34138      9.86985
       1116.78720     36.12292     17.50000   1831.87501    113.02340      0.27039      0.27009      0.30389   1830.50007      0.25679      0.25647    249.10480     13.37500     20.07411      0.51614     20.55811    203.85830    376.65950    189.11820     10.24580     10.06293     10.31231     10.01118
       1116.93960     35.55008     17.50000   1807.12512    114.23440      0.26692      0.26988      0.30231   1799.00007      0.25555      0.25403    247.31700     13.37500     20.53663      0.53422     20.92980    203.84020    376.62760    189.11820     10.44324     10.29988     10.48656     10.23674
       1117.09200     33.39348     17.50000   1798.33329    116.81250      0.26370      0.27188      0.30487   1795.00005      0.25516      0.25137    245.72900     13.37500     20.70970      0.55072     21.13095    203.82080    376.59450    189.11820     10.49954     10.38855     10.63141     10.32115
       1117.24440     33.93263     17.50000   1850.12500    116.63190      0.25818      0.26946      0.30141   1859.99995      0.25255      0.24915    245.36620     13.37500     20.68016      0.55508     21.10200    203.80090    376.56070    189.11820     10.49954     10.35901     10.60246     10.32115
       1117.39680     35.85334     17.50000   1856.62512    114.62500      0.24787      0.26145      0.29584   1845.00003      0.24541      0.24150    245.10850     13.37500     20.56477      0.55458     21.10200    203.78100    376.52690    189.10960     10.49954     10.29988     10.60246     10.26489
       1117.54920     39.55999     17.50000   1846.11103    114.03470      0.24029      0.25269      0.28030   1850.00000      0.23845      0.23498    244.30510     13.37500     20.39295      0.55031     20.47331    203.76130    376.49340    189.11820     10.16101     10.24071     10.31231     10.15224
       1117.70160     45.22105     17.50000   1831.37503    112.59380      0.24013      0.25303      0.28263   1836.00003      0.24000      0.23589    244.50770     13.37500     20.73923      0.53513     20.61542    203.74280    376.46120    188.78050     10.27404     10.41809     10.34138     10.32115
       1117.85400     47.37764     17.50000   1842.44462    111.11720      0.24717      0.26007      0.29474   1854.99998      0.24677      0.24385    243.83000     13.37500     21.22771      0.53217     21.07386    203.72360    376.42820    189.11820     10.47139     10.65393     10.60246     10.57377
       1118.00640     43.13184     17.50000   1833.49993    111.52780      0.25416      0.26765      0.30491   1836.00003      0.25383      0.24746    244.95750     13.37500     21.99921      0.52842     21.52911    203.70290    376.39360    189.11820     10.72426     11.00635     10.80485     10.99287
       1118.15880     38.81866     17.50000   1840.75001    112.16410      0.26111      0.27275      0.32190   1832.00000      0.25884      0.25147    243.59210     13.37500     21.42653      0.53470     22.43738    203.68010    376.35700    189.11820     11.14356     10.71278     11.29382     10.71374
       1118.31120     34.77505     17.50000   1857.11116    112.40630      0.26230      0.27321      0.32629   1857.00010      0.25882      0.25081    243.76610     13.37500     20.94014      0.54102     22.15283    203.65680    376.31990    189.11820     11.05992     10.50661     11.09291     10.43353
       1118.46360     39.62738     17.50000   1884.87506    112.36110      0.25973      0.26676      0.31970   1890.99998      0.25190      0.24291    243.31550     13.37500     21.17164      0.55448     21.52911    203.63480    376.28410    189.11820     10.72426     10.65393     10.80485     10.51770
       1118.61600     41.24483     17.50000   1832.99995    112.71880      0.24667      0.25326      0.29743   1823.99995      0.23796      0.22856    242.66830     13.37500     21.68665      0.56735     21.84134    203.61340    376.24890    189.11820     10.89231     10.88906     10.94903     10.79759
       1118.76840     38.54909     17.50000   1809.37500    110.94440      0.23857      0.24073      0.27894   1804.00005      0.22430      0.21581    242.10900     13.37500     22.48636      0.58320     22.37920    203.59070    376.21230    189.11820     11.17141     11.29876     11.20779     11.18759
       1118.92080     33.15760     17.50000   1846.99993    111.77340      0.22625      0.23032      0.26279   1839.50008      0.21390      0.20505    240.74640     13.37500     23.19457      0.60979     23.28167    203.56560    376.17340    189.11820     11.58785     11.61910     11.69383     11.57547
       1119.07320     30.76514     17.50000   1855.88887    112.75000      0.22055      0.22936      0.26012   1858.00005      0.21116      0.20179    240.20690     13.37500     23.76176      0.61782     23.86959    203.53770    376.13170    189.11820     11.89152     11.93806     11.97807     11.82370
       1119.22560     30.76514     17.50000   1872.00003    111.13890      0.21815      0.23192      0.26806   1873.00021      0.21064      0.20107    239.48490     13.37500     23.73282      0.62715     24.12050    203.50770    376.08790    189.11820     12.02907     11.90912     12.09143     11.82370
       1119.37800     31.03471     17.50000   1867.87524    110.75000      0.21631      0.23704      0.27827   1862.00008      0.21298      0.20154    239.12810     13.37500     23.98744      0.63196     24.06385    203.47730    376.04370    189.11820     12.02907     12.05371     12.03478     11.93374
       1119.53040     27.09219     17.50000   1839.00010    111.38280      0.21378      0.24189      0.28977   1839.00010      0.21550      0.20127    238.49200     13.37500     24.38154      0.63731     24.42486    203.44660    375.99910    189.11820     12.24854     12.25564     12.17632     12.12589
       1119.68280     27.36176     17.50000   1852.12512    112.10420      0.21177      0.24623      0.30166   1855.99993      0.21714      0.20114    237.74510     13.37500     25.33264      0.63430     25.31410    203.41440    375.95320    189.11820     12.63078     12.71511     12.68332     12.61753
