~VERSION INFORMATION 
VERS  .    2.0                                     :CWLS Log ASCII Standard - VERSION 2.0
WRAP  .    NO                                      :One Line per Depth step
PROD  .    Schlumberger Technology Corp.           :LAS Producer
PROG  .    Horizon LASWriter 7.3.92069.3100        :LAS Program name and version
SOURCE.    1A-Log[6]/Up                            :Run&Pass Information
CREA  .    04/30/2018                              :LAS Creation date {MM/DD/YYYY}
#--------------------------------------------------
~WELL INFORMATION 
#MNEM           .UNIT                      DATA            :DESCRIPTION
#----            ------          --------------            -----------------------------
STRT            .m                    979.93200            :START DEPTH
STOP            .m                   3037.94160            :STOP DEPTH
STEP            .m                       0.1524            :STEP
NULL            .                       -999.25            :NULL VALUE
COMP            .                PETROLEOS MEXICANOS       :COMPANY
WELL            .                  MADREFIL 131            :WELL NAME
FLD             .                      MADREFIL            :FIELD NAME
RIGN            .                                          :Rig Name
RIGTYP          .                                          :Rig Type
SON             .                                          :Service Order Number
SRVC            .                  Schlumberger            :SERVICE COMPANY
DATE            .                    04/30/2018            :LOG DATE(Composite Date for Composite LAP) (MM/DD/YYYY)
CLAB            .                       County:            :County Label
CNTY            .                      VERACRUZ            :COUNTY
SLAB            .                       Equipo:            :State/Province Label
STAT            .                      ICMA-879            :STATE or PROVINCE
PROV            .                      ICMA-879            :STATE or PROVINCE
CTRY            .                                          :COUNTRY
CONT_REGION     .                                          :Continent Region
SECT            .                                          :Section
TOWN            .                                          :Township
RANG            .                                          :Range
API             .                                          :API NUMBER
UWI             .                                          :UNIQUE WELL ID
LUL             .                                          :Logging Unit Location
LUN             .                                          :Logging Unit Number
LOC             .                PERA MADREFIL-61          :FIELD LOCATION
FL1             .                                          :Field Location Line 1
FL2             .                                          :Field Location Line 2
LATI            .deg             18° 10' 19.542" N         :LATITUDE
LONG            .deg             93° 20' 3.618" W          :LONGITUDE
PDAT            .                            GL            :Local Permanent Datum
LMF             .                            DF            :Logging Measured From
APD             .m                        12.00            :Elevation of Depth Reference (LMF) Above Permanent Datum
EPD             .m                        20.01            :Elevation of Permanent Datum (PDAT) above Mean Sea Level
EKB             .m                      -999.25            :Elevation of Kelly Bushing Above Permanent Datum
EDF             .m                        12.00            :Elevation of Drill Floor Above Permanent Datum
EGL             .m                         0.00            :Elevation of Ground Level Above Permanent Datum
ECF             .m                      -999.25            :Elevation of Casing Flange above Permanent Datum
#--------------------------------------------------
~CURVE INFORMATION
#MNEM           .UNIT                  API CODE            :DESCRIPTION
#----            ------          --------------            -----------------------------
DEPT            .m                                         :                                                        Depth Index
GR              .gAPI                                      :        (SGT-N)                 (6in)                   Calibrated Gamma Ray
BS              .in                                        :(RT)    (Borehole)              (6in)                   Bit Size
TENS            .lbf                                       :        (WLWorkflow)            (6in)                   Cable Tension
SP              .mV                                        :        (AIT-M)                 (6in)                   Spontaneous Potential
AT90            .ohm.m                                     :        (AIT-M)                 (3in)                   Array Induction Two Foot Resistivity A90
AT20            .ohm.m                                     :        (AIT-M)                 (3in)                   Array Induction Two Foot Resistivity A20
AT10            .ohm.m                                     :        (AIT-M)                 (3in)                   Array Induction Two Foot Resistivity A10
TENS            .lbf                                       :        (WLWorkflow)            (1in)                   Cable Tension
AT30            .ohm.m                                     :        (AIT-M)                 (3in)                   Array Induction Two Foot Resistivity A30
AT60            .ohm.m                                     :        (AIT-M)                 (3in)                   Array Induction Two Foot Resistivity A60
HAZIM           .deg                                       :        (GPIT-C[1])             (6in)                   Memorized Hole Azimuth
FCD             .in                                        :(RT)    (Borehole)              (6in)                   Future Casing Diameter
HD2             .in                                        :        (PPC-B)                 (6in)                   Hole Diameter 2
DeviationDEVI   .deg                                       :        (GPIT-C[1])             (6in)                   Memorized Sonde Deviation
HD1             .in                                        :        (PPC-B)                 (6in)                   Hole Diameter 1
ICV             .m3                                        :(RT)    (Borehole)              (6in)                   Integrated Cement Volume
IHV             .m3                                        :(RT)    (Borehole)              (6in)                   Integrated Hole Volume
RB              .deg                                       :        (PPC-B)                 (6in)                   Relative Bearing
RD1             .in                                        :        (PPC-B)                 (6in)                   Radius 1
RD2             .in                                        :        (PPC-B)                 (6in)                   Radius 2
RD3             .in                                        :        (PPC-B)                 (6in)                   Radius 3
RD4             .in                                        :        (PPC-B)                 (6in)                   Radius 4
#-------------------------------------------------------------
#            DEPT           GR           BS         TENS           SP         AT90         AT20         AT10         TENS         AT30         AT60        HAZIM          FCD          HD2 DeviationDEVI          HD1          ICV          IHV           RB          RD1          RD2          RD3          RD4 
#                      (SGT-N)   (Borehole)  (WLWorkflo)      (AIT-M)      (AIT-M)      (AIT-M)      (AIT-M)  (WLWorkflo)      (AIT-M)      (AIT-M)  (GPIT-C[1])   (Borehole)      (PPC-B)  (GPIT-C[1])      (PPC-B)   (Borehole)   (Borehole)      (PPC-B)      (PPC-B)      (PPC-B)      (PPC-B)      (PPC-B) 
#                                      (RT)                                                                                                                              (RT)                                                (RT)         (RT)                                                                  
#                        (6in)        (6in)        (6in)        (6in)        (3in)        (3in)        (3in)        (1in)        (3in)        (3in)        (6in)        (6in)        (6in)        (6in)        (6in)        (6in)        (6in)        (6in)        (6in)        (6in)        (6in)        (6in) 
~ASCII
# ...
       1527.20040     43.13185     17.50000   2210.11111     82.97656      0.52699      0.52578      0.51755   2204.00013      0.51489      0.51483    118.47920     13.37500     18.44544      0.42302     18.59497    133.72190    269.32260    193.50840      9.27846      9.25779      9.31650      9.18765
       1527.35280     40.43611     17.50000   2208.37513     82.88194      0.49678      0.49890      0.50064   2209.00010      0.48548      0.48216    117.95500     13.37500     18.47541      0.40809     18.68341    133.70930    269.29610    193.17070      9.27846      9.28776      9.40494      9.18765
       1527.50520     38.00994     17.50000   2198.44442     84.43750      0.51979      0.52626      0.53214   2193.99995      0.51041      0.50880    116.76680     13.37500     18.47541      0.40333     18.62446    133.69640    269.26940    193.17070      9.27846      9.28776      9.34600      9.18765
       1527.65760     38.54909     17.50000   2225.66676     85.50781      0.56089      0.57590      0.58948   2226.99988      0.55277      0.54768    116.36920     13.37500     18.50536      0.38973     18.68175    133.68370    269.24290    193.17070      9.33575      9.31772      9.34600      9.18765
       1527.81000     33.96633     17.50000   2189.49995     86.32639      0.59828      0.61965      0.65172   2184.50020      0.59780      0.58965    115.88000     13.37500     18.44684      0.37861     20.92980    133.67080    269.21620    193.17070     10.44324      9.28776     10.48656      9.15908
       1527.96240     37.20121     17.50000   2198.22231     85.76389      0.64291      0.67329      0.71837   2200.00010      0.65433      0.63101    114.84000     13.37500     18.44822      0.36147     23.03067    133.65480    269.18640    193.17070     11.39385      9.31772     11.63683      9.13051
       1528.11480     36.66207     17.50000   2198.33337     84.85938      0.66954      0.71116      0.77069   2196.00007      0.69676      0.67901    113.27780     13.37500     18.85739      0.35845     24.11789    133.63580    269.15350    193.17070     12.11146      9.52711     12.00643      9.33029
       1528.26720     39.62738     17.50000   2206.37501     85.05556      0.70473      0.74618      0.81689   2197.50000      0.73514      0.71140    109.64540     13.37500     18.47399      0.35558     24.62250    133.61450    269.11840    193.17070     12.24854      9.25779     12.37396      9.21620
       1528.41960     37.74036     17.50000   2212.22229     87.00694      0.70516      0.75140      0.83043   2219.00005      0.74863      0.70382    107.45370     13.37500     18.58954      0.36262     26.00519    133.59320    269.08330    193.17070     12.90239      9.28776     13.10280      9.30178
       1528.57200     38.00994     17.50000   2200.77794     86.26563      0.69178      0.74186      0.80274   2200.00010      0.73030      0.71116    106.04250     13.37500     18.62233      0.36558     24.81564    133.56960    269.04590    193.17070     12.38532      9.37760     12.43032      9.24474
       1528.72440     40.43611     17.50000   2185.37493     84.43056      0.63629      0.70553      0.77422   2184.00000      0.68436      0.65111    105.49880     13.37500     18.79763      0.37259     23.27912    133.54780    269.01020    193.17070     11.67080      9.46734     11.60831      9.33029
       1528.87680     41.78398     17.50000   2191.77794     82.93750      0.57015      0.62929      0.70050   2188.99997      0.61741      0.58095    105.12140     13.37500     19.64133      0.37589     23.00058    133.52780    268.97640    193.50840     11.44933      9.88474     11.55125      9.75659
       1529.02920     43.46881     17.50000   2240.00013     83.09375      0.48857      0.54351      0.61260   2246.00006      0.52668      0.49827    105.68250     13.37500     20.12613      0.38291     20.93220    133.50670    268.94150    193.17070     10.35869      9.97389     10.57351     10.15224
       1529.18160     42.33660     17.50000   2252.87561     83.92361      0.44346      0.51289      0.54840   2250.00031      0.48873      0.44649    106.77320     13.37500     19.08794      0.38567     22.32178    133.48800    268.90900    193.17070     11.17141      9.58683     11.15037      9.50111
       1529.33400     40.44958     17.50000   2241.11114     84.54166      0.42387      0.47952      0.50426   2246.00006      0.45763      0.42333    107.16700     13.37500     19.75459      0.38873     23.17011    133.46890    268.87610    193.17070     11.50477      9.88474     11.66534      9.86985
       1529.48640     37.41688     17.50000   2214.66664     83.76563      0.36884      0.42834      0.44422   2213.00013      0.40383      0.37264    107.84910     13.37500     20.59434      0.39198     23.64409    133.44740    268.84070    193.17070     11.83641     10.32945     11.80767     10.26489
       1529.63880     40.16653     17.50000   2202.87518     84.98611      0.32361      0.36167      0.38112   2201.00005      0.34247      0.32619    106.63830     13.37500     20.73923      0.39555     23.62051    133.42360    268.80310    193.17070     11.67080     10.41809     11.94970     10.32115
       1529.79120     39.08823     17.50000   2212.77802     85.32639      0.29594      0.31940      0.33139   2214.00008      0.30842      0.29744    106.87780     13.37500     20.27448      0.39669     19.20381    133.39960    268.76530    193.17070      9.59294     10.12224      9.61087     10.15224
       1529.94360     38.27951     17.50000   2206.66681     83.94531      0.28018      0.29910      0.30840   2203.00018      0.28967      0.28251    106.10750     13.37500     18.79623      0.39639     18.65394    133.38330    268.73520    193.17070      9.27846      9.43744      9.37548      9.35879
       1530.09600     34.23590     17.50000   2224.37501     83.13194      0.27793      0.29015      0.30223   2228.00005      0.28057      0.28101    105.55630     13.37500     19.08794      0.39232     18.68259    133.37010    268.70810    193.17070      9.30711      9.58683      9.37548      9.50111
       1530.24840     34.50547     17.50000   2210.55555     84.11111      0.29277      0.29995      0.31091   2208.00015      0.29026      0.29495    105.04420     13.37500     19.20303      0.37738     18.97287    133.35630    268.68060    193.17070      9.45018      9.61667      9.52269      9.58636
       1530.40080     33.96633     17.50000   2205.66686     82.44444      0.34410      0.34165      0.36515   2214.00008      0.33632      0.34741    104.20360     13.37500     19.23287      0.37351     19.14674    133.34200    268.65250    193.17070      9.53587      9.64650      9.61087      9.58636
       1530.55320     34.77505     17.50000   2205.62504     85.66406      0.44914      0.42954      0.45872   2211.49998      0.42799      0.44509    103.82240     13.37500     19.37765      0.35471     19.34974    133.32740    268.62400    193.17070      9.62146      9.70613      9.72828      9.67153
       1530.70560     35.85334     17.50000   2177.55563     86.25694      0.60544      0.56209      0.60877   2169.50005      0.55916      0.58333    104.47970     13.37500     19.34928      0.33173     19.17612    133.31220    268.59510    193.17070      9.53587      9.70613      9.64024      9.64315
       1530.85800     39.08823     17.50000   2188.88892     86.88194      0.72787      0.65865      0.73418   2196.00007      0.65055      0.69759    103.75730     13.37500     19.55207      0.31206     19.11737    133.29740    268.56650    193.17070      9.53587      9.79548      9.58149      9.75659
       1531.01040     41.24483     17.50000   2193.00000     87.26563      0.82990      0.71968      0.78268   2191.49985      0.71928      0.77627    102.91210     13.37500     19.58184      0.28095     19.32041    133.28230    268.53760    193.17070      9.62146      9.82525      9.69894      9.75659
       1531.16280     41.24483     17.50000   2197.55575     86.52084      0.85559      0.73428      0.78524   2197.00003      0.73455      0.79676    103.45580     13.37500     19.64133      0.22751     19.52314    133.26700    268.50840    193.17070      9.70694      9.88474      9.81620      9.75659
