~VERSION INFORMATION 
VERS  .    2.0                                     :CWLS Log ASCII Standard - VERSION 2.0
WRAP  .    NO                                      :One Line per Depth step
PROD  .    Schlumberger Technology Corp.           :LAS Producer
PROG  .    Horizon LASWriter 7.3.92069.3100        :LAS Program name and version
SOURCE.    1A-Log[6]/Up                            :Run&Pass Information
CREA  .    04/30/2018                              :LAS Creation date {MM/DD/YYYY}
#--------------------------------------------------
~WELL INFORMATION 
#MNEM           .UNIT                      DATA            :DESCRIPTION
#----            ------          --------------            -----------------------------
STRT            .m                    979.93200            :START DEPTH
STOP            .m                   3037.94160            :STOP DEPTH
STEP            .m                       0.1524            :STEP
NULL            .                       -999.25            :NULL VALUE
COMP            .                PETROLEOS MEXICANOS       :COMPANY
WELL            .                  MADREFIL 131            :WELL NAME
FLD             .                      MADREFIL            :FIELD NAME
RIGN            .                                          :Rig Name
RIGTYP          .                                          :Rig Type
SON             .                                          :Service Order Number
SRVC            .                  Schlumberger            :SERVICE COMPANY
DATE            .                    04/30/2018            :LOG DATE(Composite Date for Composite LAP) (MM/DD/YYYY)
CLAB            .                       County:            :County Label
CNTY            .                      VERACRUZ            :COUNTY
SLAB            .                       Equipo:            :State/Province Label
STAT            .                      ICMA-879            :STATE or PROVINCE
PROV            .                      ICMA-879            :STATE or PROVINCE
CTRY            .                                          :COUNTRY
CONT_REGION     .                                          :Continent Region
SECT            .                                          :Section
TOWN            .                                          :Township
RANG            .                                          :Range
API             .                                          :API NUMBER
UWI             .                                          :UNIQUE WELL ID
LUL             .                                          :Logging Unit Location
LUN             .                                          :Logging Unit Number
LOC             .                PERA MADREFIL-61          :FIELD LOCATION
FL1             .                                          :Field Location Line 1
FL2             .                                          :Field Location Line 2
LATI            .deg             18° 10' 19.542" N         :LATITUDE
LONG            .deg             93° 20' 3.618" W          :LONGITUDE
PDAT            .                            GL            :Local Permanent Datum
LMF             .                            DF            :Logging Measured From
APD             .m                        12.00            :Elevation of Depth Reference (LMF) Above Permanent Datum
EPD             .m                        20.01            :Elevation of Permanent Datum (PDAT) above Mean Sea Level
EKB             .m                      -999.25            :Elevation of Kelly Bushing Above Permanent Datum
EDF             .m                        12.00            :Elevation of Drill Floor Above Permanent Datum
EGL             .m                         0.00            :Elevation of Ground Level Above Permanent Datum
ECF             .m                      -999.25            :Elevation of Casing Flange above Permanent Datum
#--------------------------------------------------
~CURVE INFORMATION
#MNEM           .UNIT                  API CODE            :DESCRIPTION
#----            ------          --------------            -----------------------------
DEPT            .m                                         :                                                        Depth Index
GR              .gAPI                                      :        (SGT-N)                 (6in)                   Calibrated Gamma Ray
BS              .in                                        :(RT)    (Borehole)              (6in)                   Bit Size
TENS            .lbf                                       :        (WLWorkflow)            (6in)                   Cable Tension
SP              .mV                                        :        (AIT-M)                 (6in)                   Spontaneous Potential
AT90            .ohm.m                                     :        (AIT-M)                 (3in)                   Array Induction Two Foot Resistivity A90
AT20            .ohm.m                                     :        (AIT-M)                 (3in)                   Array Induction Two Foot Resistivity A20
AT10            .ohm.m                                     :        (AIT-M)                 (3in)                   Array Induction Two Foot Resistivity A10
TENS            .lbf                                       :        (WLWorkflow)            (1in)                   Cable Tension
AT30            .ohm.m                                     :        (AIT-M)                 (3in)                   Array Induction Two Foot Resistivity A30
AT60            .ohm.m                                     :        (AIT-M)                 (3in)                   Array Induction Two Foot Resistivity A60
HAZIM           .deg                                       :        (GPIT-C[1])             (6in)                   Memorized Hole Azimuth
FCD             .in                                        :(RT)    (Borehole)              (6in)                   Future Casing Diameter
HD2             .in                                        :        (PPC-B)                 (6in)                   Hole Diameter 2
DeviationDEVI   .deg                                       :        (GPIT-C[1])             (6in)                   Memorized Sonde Deviation
HD1             .in                                        :        (PPC-B)                 (6in)                   Hole Diameter 1
ICV             .m3                                        :(RT)    (Borehole)              (6in)                   Integrated Cement Volume
IHV             .m3                                        :(RT)    (Borehole)              (6in)                   Integrated Hole Volume
RB              .deg                                       :        (PPC-B)                 (6in)                   Relative Bearing
RD1             .in                                        :        (PPC-B)                 (6in)                   Radius 1
RD2             .in                                        :        (PPC-B)                 (6in)                   Radius 2
RD3             .in                                        :        (PPC-B)                 (6in)                   Radius 3
RD4             .in                                        :        (PPC-B)                 (6in)                   Radius 4
#-------------------------------------------------------------
#            DEPT           GR           BS         TENS           SP         AT90         AT20         AT10         TENS         AT30         AT60        HAZIM          FCD          HD2 DeviationDEVI          HD1          ICV          IHV           RB          RD1          RD2          RD3          RD4 
#                      (SGT-N)   (Borehole)  (WLWorkflo)      (AIT-M)      (AIT-M)      (AIT-M)      (AIT-M)  (WLWorkflo)      (AIT-M)      (AIT-M)  (GPIT-C[1])   (Borehole)      (PPC-B)  (GPIT-C[1])      (PPC-B)   (Borehole)   (Borehole)      (PPC-B)      (PPC-B)      (PPC-B)      (PPC-B)      (PPC-B) 
#                                      (RT)                                                                                                                              (RT)                                                (RT)         (RT)                                                                  
#                        (6in)        (6in)        (6in)        (6in)        (3in)        (3in)        (3in)        (1in)        (3in)        (3in)        (6in)        (6in)        (6in)        (6in)        (6in)        (6in)        (6in)        (6in)        (6in)        (6in)        (6in)        (6in) 
~ASCII
# ...
       3029.10240      -999.25     17.50000   3614.73222     90.51250      1.65459      1.59677      1.65789   3640.00075      1.60787      1.63013      -999.25     13.37500      -999.25      -999.25      -999.25      0.00000      0.00000      -999.25      -999.25      -999.25      -999.25      -999.25
       3029.25480      -999.25     17.50000   3594.53314     91.87500      1.63928      1.58728      1.64432   3602.50037      1.59588      1.61680      -999.25     13.37500      -999.25      -999.25      -999.25      0.00000      0.00000      -999.25      -999.25      -999.25      -999.25      -999.25
       3029.40720      -999.25     17.50000   3585.35644     90.20000      1.63099      1.58447      1.63638   3602.50037      1.59233      1.61015      -999.25     13.37500      -999.25      -999.25      -999.25      0.00000      0.00000      -999.25      -999.25      -999.25      -999.25      -999.25
       3029.55960      -999.25     17.50000   3571.28564     90.68750      1.62364      1.58081      1.63175   3578.00069      1.58910      1.60557      -999.25     13.37500      -999.25      -999.25      -999.25      0.00000      0.00000      -999.25      -999.25      -999.25      -999.25      -999.25
       3029.71200      -999.25     17.50000   3597.28480     88.82143      1.61746      1.57671      1.63625   3616.00014      1.58139      1.59710      -999.25     13.37500      -999.25      -999.25      -999.25      0.00000      0.00000      -999.25      -999.25      -999.25      -999.25      -999.25
       3029.86440      -999.25     17.50000   3621.73277     88.99583      1.60898      1.57332      1.64061   3641.99930      1.58279      1.59495      -999.25     13.37500      -999.25      -999.25      -999.25      0.00000      0.00000      -999.25      -999.25      -999.25      -999.25      -999.25
       3030.01680      -999.25     17.50000   3619.66678     94.66071      1.60695      1.56641      1.65008   3632.66748      1.57597      1.59012      -999.25     13.37500      -999.25      -999.25      -999.25      0.00000      0.00000      -999.25      -999.25      -999.25      -999.25      -999.25
       3030.16920      -999.25     17.50000   3594.64329     89.02917      1.59852      1.55691      1.64470   3595.00074      1.56734      1.58175      -999.25     13.37500      -999.25      -999.25      -999.25      0.00000      0.00000      -999.25      -999.25      -999.25      -999.25      -999.25
       3030.32160      -999.25     17.50000   3615.66743     87.46429      1.58661      1.53713      1.62163   3618.33366      1.55384      1.56653      -999.25     13.37500      -999.25      -999.25      -999.25      0.00000      0.00000      -999.25      -999.25      -999.25      -999.25      -999.25
       3030.47400      -999.25     17.50000   3617.49962     88.96429      1.57615      1.52355      1.60806   3642.99970      1.54136      1.55363      -999.25     13.37500      -999.25      -999.25      -999.25      0.00000      0.00000      -999.25      -999.25      -999.25      -999.25      -999.25
       3030.62640      -999.25     17.50000   3611.64335     83.08750      1.56972      1.51402      1.59483   3607.99919      1.53152      1.54673      -999.25     13.37500      -999.25      -999.25      -999.25      0.00000      0.00000      -999.25      -999.25      -999.25      -999.25      -999.25
       3030.77880      -999.25     17.50000   3635.53379     75.76786      1.56360      1.50583      1.58893   3650.00025      1.52164      1.54067      -999.25     13.37500      -999.25      -999.25      -999.25      0.00000      0.00000      -999.25      -999.25      -999.25      -999.25      -999.25
       3030.93120      -999.25     17.50000   3665.50082     72.62500      1.55627      1.49504      1.61744   3703.00120      1.50933      1.53148      -999.25     13.37500      -999.25      -999.25      -999.25      0.00000      0.00000      -999.25      -999.25      -999.25      -999.25      -999.25
       3031.08360      -999.25     17.50000   3671.19973     71.38750      1.54673      1.48704      1.56030   3686.66659      1.49815      1.52281      -999.25     13.37500      -999.25      -999.25      -999.25      0.00000      0.00000      -999.25      -999.25      -999.25      -999.25      -999.25
       3031.23600      -999.25     17.50000   3691.14253     73.54911      1.53547      1.47082      1.51724   3720.50033      1.48514      1.51212      -999.25     13.37500      -999.25      -999.25      -999.25      0.00000      0.00000      -999.25      -999.25      -999.25      -999.25      -999.25
       3031.38840      -999.25     17.50000   3686.93411     71.58036      1.51975      1.48289      1.54418   3685.33347      1.46350      1.49526      -999.25     13.37500      -999.25      -999.25      -999.25      0.00000      0.00000      -999.25      -999.25      -999.25      -999.25      -999.25
       3031.54080      -999.25     17.50000   3672.71494     69.99167      1.52746      1.45599      1.56279   3692.99945      1.47430      1.50365      -999.25     13.37500      -999.25      -999.25      -999.25      0.00000      0.00000      -999.25      -999.25      -999.25      -999.25      -999.25
       3031.69320      -999.25     17.50000   3656.46575     72.62946      1.53340      1.46873      1.54853   3662.33327      1.46001      1.50249      -999.25     13.37500      -999.25      -999.25      -999.25      0.00000      0.00000      -999.25      -999.25      -999.25      -999.25      -999.25
       3031.84560      -999.25     17.50000   3648.99985     75.17083      1.54286      1.47528      1.54594   3650.49932      1.47976      1.50582      -999.25     13.37500      -999.25      -999.25      -999.25      0.00000      0.00000      -999.25      -999.25      -999.25      -999.25      -999.25
       3031.99800      -999.25     17.50000   3632.26732     78.76339      1.50470      1.48111      1.54609   3635.00100      1.47796      1.48886      -999.25     13.37500      -999.25      -999.25      -999.25      0.00000      0.00000      -999.25      -999.25      -999.25      -999.25      -999.25
       3032.15040      -999.25     17.50000   3622.00029     81.89167      1.50401      1.47110      1.53265   3601.00089      1.47214      1.48854      -999.25     13.37500      -999.25      -999.25      -999.25      0.00000      0.00000      -999.25      -999.25      -999.25      -999.25      -999.25
       3032.30280      -999.25     17.50000   3630.86676     80.34375      1.49326      1.47130      1.52678   3629.99900      1.46773      1.48251      -999.25     13.37500      -999.25      -999.25      -999.25      0.00000      0.00000      -999.25      -999.25      -999.25      -999.25      -999.25
       3032.45520      -999.25     17.50000   3631.21521     77.15000      1.49300      1.47184      1.52596   3625.99965      1.46614      1.48189      -999.25     13.37500      -999.25      -999.25      -999.25      0.00000      0.00000      -999.25      -999.25      -999.25      -999.25      -999.25
       3032.60760      -999.25     17.50000   3639.66578     84.61161      1.49752      1.47625      1.52803   3640.99890      1.47291      1.48846      -999.25     13.37500      -999.25      -999.25      -999.25      0.00000      0.00000      -999.25      -999.25      -999.25      -999.25      -999.25
       3032.76000      -999.25     17.50000   3625.92771     82.26250      1.49899      1.48049      1.53451   3613.99934      1.47554      1.49132      -999.25     13.37500      -999.25      -999.25      -999.25      0.00000      0.00000      -999.25      -999.25      -999.25      -999.25      -999.25
       3032.91240      -999.25     17.50000   3629.46620     83.57143      1.51098      1.48435      1.53685   3627.66773      1.48494      1.50362      -999.25     13.37500      -999.25      -999.25      -999.25      0.00000      0.00000      -999.25      -999.25      -999.25      -999.25      -999.25
       3033.06480      -999.25     17.50000   3616.57116     85.08750      1.51598      1.48698      1.53514   3621.49897      1.48963      1.50946      -999.25     13.37500      -999.25      -999.25      -999.25      0.00000      0.00000      -999.25      -999.25      -999.25      -999.25      -999.25
