~VERSION INFORMATION 
VERS  .    2.0                                     :CWLS Log ASCII Standard - VERSION 2.0
WRAP  .    NO                                      :One Line per Depth step
PROD  .    Schlumberger Technology Corp.           :LAS Producer
PROG  .    Horizon LASWriter 7.3.92069.3100        :LAS Program name and version
SOURCE.    1A-Log[6]/Up                            :Run&Pass Information
CREA  .    04/30/2018                              :LAS Creation date {MM/DD/YYYY}
#--------------------------------------------------
~WELL INFORMATION 
#MNEM           .UNIT                      DATA            :DESCRIPTION
#----            ------          --------------            -----------------------------
STRT            .m                    979.93200            :START DEPTH
STOP            .m                   3037.94160            :STOP DEPTH
STEP            .m                       0.1524            :STEP
NULL            .                       -999.25            :NULL VALUE
COMP            .                PETROLEOS MEXICANOS       :COMPANY
WELL            .                  MADREFIL 131            :WELL NAME
FLD             .                      MADREFIL            :FIELD NAME
RIGN            .                                          :Rig Name
RIGTYP          .                                          :Rig Type
SON             .                                          :Service Order Number
SRVC            .                  Schlumberger            :SERVICE COMPANY
DATE            .                    04/30/2018            :LOG DATE(Composite Date for Composite LAP) (MM/DD/YYYY)
CLAB            .                       County:            :County Label
CNTY            .                      VERACRUZ            :COUNTY
SLAB            .                       Equipo:            :State/Province Label
STAT            .                      ICMA-879            :STATE or PROVINCE
PROV            .                      ICMA-879            :STATE or PROVINCE
CTRY            .                                          :COUNTRY
CONT_REGION     .                                          :Continent Region
SECT            .                                          :Section
TOWN            .                                          :Township
RANG            .                                          :Range
API             .                                          :API NUMBER
UWI             .                                          :UNIQUE WELL ID
LUL             .                                          :Logging Unit Location
LUN             .                                          :Logging Unit Number
LOC             .                PERA MADREFIL-61          :FIELD LOCATION
FL1             .                                          :Field Location Line 1
FL2             .                                          :Field Location Line 2
LATI            .deg             18° 10' 19.542" N         :LATITUDE
LONG            .deg             93° 20' 3.618" W          :LONGITUDE
PDAT            .                            GL            :Local Permanent Datum
LMF             .                            DF            :Logging Measured From
APD             .m                        12.00            :Elevation of Depth Reference (LMF) Above Permanent Datum
EPD             .m                        20.01            :Elevation of Permanent Datum (PDAT) above Mean Sea Level
EKB             .m                      -999.25            :Elevation of Kelly Bushing Above Permanent Datum
EDF             .m                        12.00            :Elevation of Drill Floor Above Permanent Datum
EGL             .m                         0.00            :Elevation of Ground Level Above Permanent Datum
ECF             .m                      -999.25            :Elevation of Casing Flange above Permanent Datum
#--------------------------------------------------
~CURVE INFORMATION
#MNEM           .UNIT                  API CODE            :DESCRIPTION
#----            ------          --------------            -----------------------------
DEPT            .m                                         :                                                        Depth Index
GR              .gAPI                                      :        (SGT-N)                 (6in)                   Calibrated Gamma Ray
BS              .in                                        :(RT)    (Borehole)              (6in)                   Bit Size
TENS            .lbf                                       :        (WLWorkflow)            (6in)                   Cable Tension
SP              .mV                                        :        (AIT-M)                 (6in)                   Spontaneous Potential
AT90            .ohm.m                                     :        (AIT-M)                 (3in)                   Array Induction Two Foot Resistivity A90
AT20            .ohm.m                                     :        (AIT-M)                 (3in)                   Array Induction Two Foot Resistivity A20
AT10            .ohm.m                                     :        (AIT-M)                 (3in)                   Array Induction Two Foot Resistivity A10
TENS            .lbf                                       :        (WLWorkflow)            (1in)                   Cable Tension
AT30            .ohm.m                                     :        (AIT-M)                 (3in)                   Array Induction Two Foot Resistivity A30
AT60            .ohm.m                                     :        (AIT-M)                 (3in)                   Array Induction Two Foot Resistivity A60
HAZIM           .deg                                       :        (GPIT-C[1])             (6in)                   Memorized Hole Azimuth
FCD             .in                                        :(RT)    (Borehole)              (6in)                   Future Casing Diameter
HD2             .in                                        :        (PPC-B)                 (6in)                   Hole Diameter 2
DeviationDEVI   .deg                                       :        (GPIT-C[1])             (6in)                   Memorized Sonde Deviation
HD1             .in                                        :        (PPC-B)                 (6in)                   Hole Diameter 1
ICV             .m3                                        :(RT)    (Borehole)              (6in)                   Integrated Cement Volume
IHV             .m3                                        :(RT)    (Borehole)              (6in)                   Integrated Hole Volume
RB              .deg                                       :        (PPC-B)                 (6in)                   Relative Bearing
RD1             .in                                        :        (PPC-B)                 (6in)                   Radius 1
RD2             .in                                        :        (PPC-B)                 (6in)                   Radius 2
RD3             .in                                        :        (PPC-B)                 (6in)                   Radius 3
RD4             .in                                        :        (PPC-B)                 (6in)                   Radius 4
#-------------------------------------------------------------
#            DEPT           GR           BS         TENS           SP         AT90         AT20         AT10         TENS         AT30         AT60        HAZIM          FCD          HD2 DeviationDEVI          HD1          ICV          IHV           RB          RD1          RD2          RD3          RD4 
#                      (SGT-N)   (Borehole)  (WLWorkflo)      (AIT-M)      (AIT-M)      (AIT-M)      (AIT-M)  (WLWorkflo)      (AIT-M)      (AIT-M)  (GPIT-C[1])   (Borehole)      (PPC-B)  (GPIT-C[1])      (PPC-B)   (Borehole)   (Borehole)      (PPC-B)      (PPC-B)      (PPC-B)      (PPC-B)      (PPC-B) 
#                                      (RT)                                                                                                                              (RT)                                                (RT)         (RT)                                                                  
#                        (6in)        (6in)        (6in)        (6in)        (3in)        (3in)        (3in)        (1in)        (3in)        (3in)        (6in)        (6in)        (6in)        (6in)        (6in)        (6in)        (6in)        (6in)        (6in)        (6in)        (6in)        (6in) 
~ASCII
# ...
       1662.98880     30.73144     17.50000   2304.88966     91.40972      0.31259      0.44142      0.71895   2304.99981      0.36441      0.31876     65.71272     13.37500     30.21081      0.37005     30.77543    109.61880    232.91080    193.17070     15.29364     15.18899     15.48178     15.02182
       1663.14120     32.45671     17.50000   2315.33428     91.36806      0.31400      0.44404      0.69647   2317.00012      0.36629      0.32140     65.26608     13.37500     30.23976      0.36430     31.43390    109.56090    232.83900    193.17070     15.63117     15.24415     15.80272     14.99561
       1663.29360     30.03055     17.50000   2302.77870     90.86111      0.31506      0.45093      0.69770   2298.99966      0.36921      0.32434     64.74027     13.37500     30.53315      0.35810     31.46056    109.50130    232.76560    193.17070     15.63117     15.35431     15.82939     15.17883
       1663.44600     25.44779     17.50000   2296.44359     90.28906      0.31727      0.45875      0.72458   2281.99961      0.37374      0.32885     65.02419     13.37500     30.85465      0.35491     31.85283    109.44090    232.69140    193.17070     15.86369     15.51921     15.98914     15.33544
       1663.59840     26.68783     17.50000   2302.44374     90.54166      0.31824      0.46559      0.74777   2300.49914      0.37992      0.33286     65.17738     13.37500     31.41586      0.34742     32.37615    109.37880    232.61550    193.17070     16.09526     15.82037     16.28089     15.59549
       1663.75080     25.63649     17.50000   2327.44474     90.93750      0.31886      0.47161      0.77661   2321.50079      0.38561      0.33557     65.31509     13.37500     31.52095      0.34550     32.40259    109.31410    232.53700    193.17070     16.09526     15.84767     16.30733     15.67328
       1663.90320     24.01905     17.50000   2335.37600     89.56944      0.31906      0.47740      0.80565   2328.49909      0.39109      0.33744     64.97530     13.37500     32.07898      0.33859     32.53163    109.24900    232.45810    193.17070     16.19787     16.14719     16.33377     15.93179
       1664.05560     22.13203     17.50000   2328.33274     88.02084      0.31956      0.48320      0.82392   2328.49909      0.39740      0.33834     65.01426     13.37500     31.89418      0.33586     33.33690    109.18220    232.37750    193.17070     16.55554     16.06565     16.78136     15.82853
       1664.20800     23.10250     17.50000   2297.88911     87.32639      0.31732      0.48581      0.83628   2297.99926      0.40093      0.33707     64.12983     13.37500     31.97302      0.33740     33.80119    109.11400    232.29540    193.17070     16.78427     16.09284     17.01693     15.88018
       1664.36040     24.45037     17.50000   2292.33408     85.61806      0.31426      0.48797      0.84555   2298.99966      0.40314      0.33324     63.94403     13.37500     32.78951      0.33603     33.82577    109.04430    232.21200    193.17070     16.83497     16.47221     16.99080     16.31730
       1664.51280     26.87653     17.50000   2300.77790     83.77778      0.30870      0.48802      0.83652   2307.00061      0.40318      0.33037     64.07527     13.37500     32.94865      0.33660     33.74970    108.97250    232.12630    193.17070     16.75890     16.58015     16.99080     16.36850
       1664.66520     25.90606     17.50000   2304.99981     84.46094      0.30128      0.48322      0.79345   2309.99957      0.40067      0.32966     63.03515     13.37500     33.34271      0.33504     34.16020    108.90040    232.04050    193.17070     16.98679     16.79541     17.17342     16.54730
       1664.81760     24.55820     17.50000   2290.33328     84.90278      0.29337      0.47139      0.73804   2296.00071      0.39626      0.32559     62.52957     13.37500     33.99450      0.33506     34.36528    108.82630    231.95250    193.17070     17.08777     17.11677     17.27751     16.87774
       1664.97000     19.97544     17.50000   2303.37445     85.21528      0.28753      0.46274      0.69470   2309.99957      0.39581      0.32620     61.86494     13.37500     33.99718      0.32971     34.64623    108.74980    231.86230    193.17070     17.23888     17.17014     17.40735     16.82704
       1665.12240     21.29635     17.50000   2307.77845     84.23611      0.28685      0.46007      0.65031   2307.00061      0.40120      0.33232     61.02329     13.37500     33.23657      0.32763     35.02834    108.67270    231.77130    193.17070     17.43972     16.71478     17.58862     16.52179
       1665.27480     21.08069     17.50000   2298.55679     84.64584      0.29075      0.46051      0.65597   2300.00006      0.41000      0.34174     60.05156     13.37500     33.73399      0.32520     35.53628    108.59660    231.68140    193.50840     17.68972     16.98309     17.84656     16.75089
       1665.42720     22.15899     17.50000   2295.88831     82.89584      0.29560      0.46926      0.63677   2293.99991      0.42315      0.35409     57.86926     13.37500     34.48566      0.31990     35.63912    108.51780    231.58880    193.17070     17.68972     17.32996     17.94941     17.15570
       1665.57960     22.42856     17.50000   2289.77800     82.62500      0.30310      0.45784      0.64151   2284.00041      0.42772      0.36116     56.28468     13.37500     34.38201      0.31538     35.41143    108.43670    231.49390    193.17070     17.56487     17.27674     17.84656     17.10527
       1665.73200     23.18336     17.50000   2285.55609     80.77084      0.29547      0.42626      0.58361   2280.00106      0.41288      0.35363     55.64249     13.37500     35.67143      0.31770     35.36140    108.35650    231.39990    193.17070     17.51484     17.96445     17.84656     17.70697
       1665.88440     27.22698     17.50000   2280.77890     80.17969      0.29548      0.39672      0.51931   2270.50063      0.39364      0.33771     55.11081     13.37500     34.66885      0.31443     33.07223    108.27290    231.30250    193.17070     16.60645     17.46278     16.46577     17.20607
       1666.03680     27.82004     17.50000   2289.22272     79.79166      0.30403      0.36032      0.46113   2282.50094      0.35500      0.32223     54.06401     13.37500     30.96162      0.31604     27.02196    108.19820    231.21400    193.17070     13.25370     15.57408     13.76826     15.38754
       1666.18920     31.86365     17.50000   2314.25070     80.86806      0.27103      0.29971      0.34725   2313.99892      0.29688      0.27567     54.30187     13.37500     26.93063      0.31674     23.25837    108.14740    231.14930    193.17070     11.39385     13.31369     11.86453     13.61695
       1666.34160     33.42718     17.50000   2317.00012     80.07639      0.24895      0.25116      0.28347   2307.49969      0.24924      0.24015     54.80853     13.37500     18.70930      0.32333     18.50812    108.11280    231.10100    193.17070      9.22112      9.40752      9.28700      9.30178
       1666.49400     35.26028     17.50000   2334.88816     79.38889      0.22376      0.22070      0.24052   2334.00017      0.21825      0.21236     54.92757     13.37500     18.41545      0.32689     18.33344    108.09990    231.07420    193.17070      9.13503      9.22780      9.19841      9.18765
       1666.64640     36.60815     17.50000   2321.22203     80.83334      0.22091      0.21214      0.22644   2319.99907      0.21081      0.20606     54.45117     13.37500     18.44544      0.32261     18.30472    108.08770    231.04810    193.17070      9.10631      9.25779      9.19841      9.18765
       1666.79880     35.31420     17.50000   2312.11052     81.02778      0.22472      0.21295      0.22434   2317.00012      0.20974      0.20657     55.17511     13.37500     18.47541      0.32316     18.30472    108.07540    231.02200    193.17070      9.10631      9.28776      9.19841      9.18765
       1666.95120     36.63511     17.50000   2318.88851     81.65278      0.22975      0.21404      0.22801   2320.99947      0.20890      0.20748     54.79927     13.37500     18.47541      0.31936     18.33426    108.06310    230.99590    193.17070      9.10631      9.28776      9.22795      9.18765
