~VERSION INFORMATION 
VERS  .    2.0                                     :CWLS Log ASCII Standard - VERSION 2.0
WRAP  .    NO                                      :One Line per Depth step
PROD  .    Schlumberger Technology Corp.           :LAS Producer
PROG  .    Horizon LASWriter 7.3.92069.3100        :LAS Program name and version
SOURCE.    1A-Log[6]/Up                            :Run&Pass Information
CREA  .    04/30/2018                              :LAS Creation date {MM/DD/YYYY}
#--------------------------------------------------
~WELL INFORMATION 
#MNEM           .UNIT                      DATA            :DESCRIPTION
#----            ------          --------------            -----------------------------
STRT            .m                    979.93200            :START DEPTH
STOP            .m                   3037.94160            :STOP DEPTH
STEP            .m                       0.1524            :STEP
NULL            .                       -999.25            :NULL VALUE
COMP            .                PETROLEOS MEXICANOS       :COMPANY
WELL            .                  MADREFIL 131            :WELL NAME
FLD             .                      MADREFIL            :FIELD NAME
RIGN            .                                          :Rig Name
RIGTYP          .                                          :Rig Type
SON             .                                          :Service Order Number
SRVC            .                  Schlumberger            :SERVICE COMPANY
DATE            .                    04/30/2018            :LOG DATE(Composite Date for Composite LAP) (MM/DD/YYYY)
CLAB            .                       County:            :County Label
CNTY            .                      VERACRUZ            :COUNTY
SLAB            .                       Equipo:            :State/Province Label
STAT            .                      ICMA-879            :STATE or PROVINCE
PROV            .                      ICMA-879            :STATE or PROVINCE
CTRY            .                                          :COUNTRY
CONT_REGION     .                                          :Continent Region
SECT            .                                          :Section
TOWN            .                                          :Township
RANG            .                                          :Range
API             .                                          :API NUMBER
UWI             .                                          :UNIQUE WELL ID
LUL             .                                          :Logging Unit Location
LUN             .                                          :Logging Unit Number
LOC             .                PERA MADREFIL-61          :FIELD LOCATION
FL1             .                                          :Field Location Line 1
FL2             .                                          :Field Location Line 2
LATI            .deg             18° 10' 19.542" N         :LATITUDE
LONG            .deg             93° 20' 3.618" W          :LONGITUDE
PDAT            .                            GL            :Local Permanent Datum
LMF             .                            DF            :Logging Measured From
APD             .m                        12.00            :Elevation of Depth Reference (LMF) Above Permanent Datum
EPD             .m                        20.01            :Elevation of Permanent Datum (PDAT) above Mean Sea Level
EKB             .m                      -999.25            :Elevation of Kelly Bushing Above Permanent Datum
EDF             .m                        12.00            :Elevation of Drill Floor Above Permanent Datum
EGL             .m                         0.00            :Elevation of Ground Level Above Permanent Datum
ECF             .m                      -999.25            :Elevation of Casing Flange above Permanent Datum
#--------------------------------------------------
~CURVE INFORMATION
#MNEM           .UNIT                  API CODE            :DESCRIPTION
#----            ------          --------------            -----------------------------
DEPT            .m                                         :                                                        Depth Index
GR              .gAPI                                      :        (SGT-N)                 (6in)                   Calibrated Gamma Ray
BS              .in                                        :(RT)    (Borehole)              (6in)                   Bit Size
TENS            .lbf                                       :        (WLWorkflow)            (6in)                   Cable Tension
SP              .mV                                        :        (AIT-M)                 (6in)                   Spontaneous Potential
AT90            .ohm.m                                     :        (AIT-M)                 (3in)                   Array Induction Two Foot Resistivity A90
AT20            .ohm.m                                     :        (AIT-M)                 (3in)                   Array Induction Two Foot Resistivity A20
AT10            .ohm.m                                     :        (AIT-M)                 (3in)                   Array Induction Two Foot Resistivity A10
TENS            .lbf                                       :        (WLWorkflow)            (1in)                   Cable Tension
AT30            .ohm.m                                     :        (AIT-M)                 (3in)                   Array Induction Two Foot Resistivity A30
AT60            .ohm.m                                     :        (AIT-M)                 (3in)                   Array Induction Two Foot Resistivity A60
HAZIM           .deg                                       :        (GPIT-C[1])             (6in)                   Memorized Hole Azimuth
FCD             .in                                        :(RT)    (Borehole)              (6in)                   Future Casing Diameter
HD2             .in                                        :        (PPC-B)                 (6in)                   Hole Diameter 2
DeviationDEVI   .deg                                       :        (GPIT-C[1])             (6in)                   Memorized Sonde Deviation
HD1             .in                                        :        (PPC-B)                 (6in)                   Hole Diameter 1
ICV             .m3                                        :(RT)    (Borehole)              (6in)                   Integrated Cement Volume
IHV             .m3                                        :(RT)    (Borehole)              (6in)                   Integrated Hole Volume
RB              .deg                                       :        (PPC-B)                 (6in)                   Relative Bearing
RD1             .in                                        :        (PPC-B)                 (6in)                   Radius 1
RD2             .in                                        :        (PPC-B)                 (6in)                   Radius 2
RD3             .in                                        :        (PPC-B)                 (6in)                   Radius 3
RD4             .in                                        :        (PPC-B)                 (6in)                   Radius 4
#-------------------------------------------------------------
#            DEPT           GR           BS         TENS           SP         AT90         AT20         AT10         TENS         AT30         AT60        HAZIM          FCD          HD2 DeviationDEVI          HD1          ICV          IHV           RB          RD1          RD2          RD3          RD4 
#                      (SGT-N)   (Borehole)  (WLWorkflo)      (AIT-M)      (AIT-M)      (AIT-M)      (AIT-M)  (WLWorkflo)      (AIT-M)      (AIT-M)  (GPIT-C[1])   (Borehole)      (PPC-B)  (GPIT-C[1])      (PPC-B)   (Borehole)   (Borehole)      (PPC-B)      (PPC-B)      (PPC-B)      (PPC-B)      (PPC-B) 
#                                      (RT)                                                                                                                              (RT)                                                (RT)         (RT)                                                                  
#                        (6in)        (6in)        (6in)        (6in)        (3in)        (3in)        (3in)        (1in)        (3in)        (3in)        (6in)        (6in)        (6in)        (6in)        (6in)        (6in)        (6in)        (6in)        (6in)        (6in)        (6in)        (6in) 
~ASCII
# ...
       2893.31400     69.55010     17.50000   3550.00073     86.13194      1.10709      1.12886      1.22121   3554.49916      1.11597      1.09039    161.06970     13.37500     17.91550     17.82505     18.37506      8.99985     20.76966    169.18310      8.41224      9.04516      9.96281      8.87034
       2893.46640     63.88905     17.50000   3629.11100     88.95139      1.18981      1.18507      1.25836   3640.00075      1.17887      1.17378    161.02520     13.37500     17.88679     17.85463     18.52101      8.98815     20.74414    169.18310      8.44128      9.04516     10.07972      8.84163
       2893.61880     66.50392     17.50000   3634.00060     84.79861      1.16617      1.15791      1.24601   3629.00084      1.14976      1.14385    160.93190     13.37500     17.88679     17.87680     18.69648      8.97628     20.71846    224.61970      8.47031      9.04516     10.22617      8.84163
       2893.77120     67.58221     17.50000   3649.33257     85.16666      1.14307      1.11574      1.22077   3656.00040      1.13219      1.12389    160.73130     13.37500     17.88541     17.91347     18.78340      8.96415     20.69252    224.95770      8.41224      9.01507     10.37115      8.87034
       2893.92360     70.00838     17.50000   3591.88938     85.59722      1.10574      1.10890      1.20381   3579.00109      1.09076      1.09069    160.60830     13.37500     17.88035     17.91221     18.43280      8.95188     20.66643    224.61970      8.41113      9.01252     10.02168      8.86784
       2894.07600     65.50649     17.50000   3533.66612     86.70313      1.09211      1.10374      1.18849   3535.50056      1.08294      1.08310    160.53030     13.37500     17.88401     17.90512     18.34556      8.94014     20.64088    224.95770      8.44128      8.98496      9.90428      8.89904
       2894.22840     65.50649     17.50000   3516.74924     86.30556      1.09678      1.11332      1.16717   3513.50075      1.09236      1.09555    160.46820     13.37500     17.88401     17.88062     18.49161      8.92854     20.61547    224.61970      8.47031      8.98496     10.02130      8.89904
       2894.38080     60.65416     17.50000   3509.44520     84.88194      1.10289      1.11010      1.16602   3500.00098      1.09379      1.10638    160.45120     13.37500     17.88679     17.85268     18.49197      8.91673     20.58984    224.95770      8.41224      9.04516     10.07972      8.84163
       2894.53320     62.97249     17.50000   3504.44545     76.43750      1.11804      1.13572      1.16809   3505.49980      1.11244      1.13543    160.38800     13.37500     17.88679     17.83006     18.49197      8.90489     20.56419    224.95770      8.41224      9.04516     10.07972      8.84163
       2894.68560     64.85952     17.50000   3504.44545     78.45139      1.08507      1.11148      1.17847   3504.00033      1.09379      1.10162    160.31720     13.37500     17.91687     17.80854     18.40430      8.89306     20.53854    224.95770      8.41224      9.07524      9.99206      8.84163
       2894.83800     68.90313     17.50000   3523.66661     86.32639      1.05501      1.07219      1.17638   3528.00093      1.06753      1.06933    160.27910     13.37500     17.88679     17.82444     18.52101      8.88131     20.51298    224.61970      8.44128      9.04516     10.07972      8.84163
       2894.99040     68.47181     17.50000   3524.44445     87.22222      1.03884      1.05973      1.14913   3534.99923      1.05130      1.04272    160.24460     13.37500     17.88679     17.86163     18.55004      8.86944     20.48730    224.95770      8.47031      9.04516     10.07972      8.84163
       2895.14280     71.16755     17.50000   3508.55496     88.01563      0.99514      1.03090      1.11462   3498.00018      1.02397      0.99792    160.20340     13.37500     17.88679     17.91574     18.46237      8.85754     20.46158    224.95770      8.47031      9.04516      9.99206      8.84163
       2895.29520     72.24585     17.50000   3521.77822     81.80556      0.98593      1.01591      1.09219   3531.49896      1.00308      0.98643    160.19100     13.37500     17.88679     17.98348     18.28698      8.84576     20.43599    224.61970      8.44128      9.04516      9.84570      8.84163
       2895.44760     73.05456     17.50000   3482.74914     82.28472      0.97954      1.03048      1.08114   3480.50105      1.00492      0.98711    160.16800     13.37500     17.88679     18.12869     18.11094      8.83424     20.41065    224.95770      8.44128      9.04516      9.66966      8.84163
       2895.60000     71.46408     17.50000   3462.11168     83.01389      0.97577      1.03189      1.07090   3455.00097      1.00791      0.99763    160.16670     13.37500     17.88679     18.19511     18.16934      8.82298     20.38558    224.95770      8.47031      9.04516      9.69903      8.84163
       2895.75240     67.42047     17.50000   3467.44415     83.03906      0.96889      1.01338      1.05396   3474.99997      0.99602      0.99166    160.19850     13.37500     17.88679     18.25746     18.31600      8.81164     20.36042    224.95770      8.47031      9.04516      9.84570      8.84163
       2895.90480     68.22919     17.50000   3478.44405     79.25000      0.97590      0.99342      1.04364   3482.00053      0.99953      0.99430    160.22740     13.37500     17.88679     18.30257     18.37459      8.80008     20.33505    224.95770      8.47031      9.04516      9.90428      8.84163
       2896.05720     62.27160     17.50000   3548.12583     77.65278      0.97940      1.01921      1.04434   3546.99953      0.99754      0.99986    160.28640     13.37500     17.85807     18.34179     18.46237      8.78844     20.30959    224.95770      8.47031      9.04516      9.99206      8.81291
       2896.20960     60.11501     17.50000   3589.66602     77.17361      1.02996      1.03519      1.05002   3595.99889      1.02612      1.02503    160.37810     13.37500     17.88679     18.37263     18.60842      8.77670     20.28404    224.95770      8.47031      9.04516     10.13811      8.84163
       2896.36200     56.98795     17.50000   3614.55462     85.78472      1.00155      1.00910      1.06078   3612.00079      0.99464      0.99751    160.63730     13.37500     17.85807     18.42009     18.78393      8.76471     20.25823    224.95770      8.47031      9.04516     10.31362      8.81291
       2896.51440     58.06625     17.50000   3571.66557     85.64584      0.92335      0.90493      1.02371   3586.99979      0.90634      0.90803    160.77460     13.37500     17.88679     18.43783     18.69590      8.75249     20.23219    224.95770      8.47031      9.04516     10.22559      8.84163
       2896.66680     58.87497     17.50000   3515.66566     82.89844      0.82179      0.78440      0.90768   3512.99943      0.79038      0.79882    160.92710     13.37500     17.91687     18.45959     18.37459      8.74036     20.20625    224.61970      8.47031      9.07524      9.90428      8.84163
       2896.81920     53.91481     17.50000   3513.50075     87.30556      0.79776      0.76526      0.87778   3503.49900      0.77017      0.77505    161.04530     13.37500     17.94694     18.48491     18.08118      8.72867     20.18075    224.95770      8.47031      9.10531      9.61087      8.84163
       2896.97160     47.44503     17.50000   3530.44460     85.77084      0.78591      0.79410      0.81852   3532.00028      0.77488      0.76781    161.14490     13.37500     17.88679     18.51074     18.22804      8.71738     20.15564    224.95770      8.47031      9.04516      9.75773      8.84163
       2897.12400     48.52333     17.50000   3519.88982     85.68750      0.79243      0.80788      0.80596   3507.99968      0.78189      0.77950    161.20450     13.37500     17.88679     18.54259     18.19869      8.70595     20.13040    224.95770      8.47031      9.04516      9.72838      8.84163
       2897.27640     50.81470     17.50000   3524.22189     85.77344      0.75099      0.76700      0.77811   3524.99973      0.74170      0.73759    161.21920     13.37500     17.77049     18.61245     18.37459      8.69456     20.10520    224.95770      8.47031      9.01507      9.90428      8.75543
