~VERSION INFORMATION 
VERS  .    2.0                                     :CWLS Log ASCII Standard - VERSION 2.0
WRAP  .    NO                                      :One Line per Depth step
PROD  .    Schlumberger Technology Corp.           :LAS Producer
PROG  .    Horizon LASWriter 7.3.92069.3100        :LAS Program name and version
SOURCE.    1A-Log[6]/Up                            :Run&Pass Information
CREA  .    04/30/2018                              :LAS Creation date {MM/DD/YYYY}
#--------------------------------------------------
~WELL INFORMATION 
#MNEM           .UNIT                      DATA            :DESCRIPTION
#----            ------          --------------            -----------------------------
STRT            .m                    979.93200            :START DEPTH
STOP            .m                   3037.94160            :STOP DEPTH
STEP            .m                       0.1524            :STEP
NULL            .                       -999.25            :NULL VALUE
COMP            .                PETROLEOS MEXICANOS       :COMPANY
WELL            .                  MADREFIL 131            :WELL NAME
FLD             .                      MADREFIL            :FIELD NAME
RIGN            .                                          :Rig Name
RIGTYP          .                                          :Rig Type
SON             .                                          :Service Order Number
SRVC            .                  Schlumberger            :SERVICE COMPANY
DATE            .                    04/30/2018            :LOG DATE(Composite Date for Composite LAP) (MM/DD/YYYY)
CLAB            .                       County:            :County Label
CNTY            .                      VERACRUZ            :COUNTY
SLAB            .                       Equipo:            :State/Province Label
STAT            .                      ICMA-879            :STATE or PROVINCE
PROV            .                      ICMA-879            :STATE or PROVINCE
CTRY            .                                          :COUNTRY
CONT_REGION     .                                          :Continent Region
SECT            .                                          :Section
TOWN            .                                          :Township
RANG            .                                          :Range
API             .                                          :API NUMBER
UWI             .                                          :UNIQUE WELL ID
LUL             .                                          :Logging Unit Location
LUN             .                                          :Logging Unit Number
LOC             .                PERA MADREFIL-61          :FIELD LOCATION
FL1             .                                          :Field Location Line 1
FL2             .                                          :Field Location Line 2
LATI            .deg             18° 10' 19.542" N         :LATITUDE
LONG            .deg             93° 20' 3.618" W          :LONGITUDE
PDAT            .                            GL            :Local Permanent Datum
LMF             .                            DF            :Logging Measured From
APD             .m                        12.00            :Elevation of Depth Reference (LMF) Above Permanent Datum
EPD             .m                        20.01            :Elevation of Permanent Datum (PDAT) above Mean Sea Level
EKB             .m                      -999.25            :Elevation of Kelly Bushing Above Permanent Datum
EDF             .m                        12.00            :Elevation of Drill Floor Above Permanent Datum
EGL             .m                         0.00            :Elevation of Ground Level Above Permanent Datum
ECF             .m                      -999.25            :Elevation of Casing Flange above Permanent Datum
#--------------------------------------------------
~CURVE INFORMATION
#MNEM           .UNIT                  API CODE            :DESCRIPTION
#----            ------          --------------            -----------------------------
DEPT            .m                                         :                                                        Depth Index
GR              .gAPI                                      :        (SGT-N)                 (6in)                   Calibrated Gamma Ray
BS              .in                                        :(RT)    (Borehole)              (6in)                   Bit Size
TENS            .lbf                                       :        (WLWorkflow)            (6in)                   Cable Tension
SP              .mV                                        :        (AIT-M)                 (6in)                   Spontaneous Potential
AT90            .ohm.m                                     :        (AIT-M)                 (3in)                   Array Induction Two Foot Resistivity A90
AT20            .ohm.m                                     :        (AIT-M)                 (3in)                   Array Induction Two Foot Resistivity A20
AT10            .ohm.m                                     :        (AIT-M)                 (3in)                   Array Induction Two Foot Resistivity A10
TENS            .lbf                                       :        (WLWorkflow)            (1in)                   Cable Tension
AT30            .ohm.m                                     :        (AIT-M)                 (3in)                   Array Induction Two Foot Resistivity A30
AT60            .ohm.m                                     :        (AIT-M)                 (3in)                   Array Induction Two Foot Resistivity A60
HAZIM           .deg                                       :        (GPIT-C[1])             (6in)                   Memorized Hole Azimuth
FCD             .in                                        :(RT)    (Borehole)              (6in)                   Future Casing Diameter
HD2             .in                                        :        (PPC-B)                 (6in)                   Hole Diameter 2
DeviationDEVI   .deg                                       :        (GPIT-C[1])             (6in)                   Memorized Sonde Deviation
HD1             .in                                        :        (PPC-B)                 (6in)                   Hole Diameter 1
ICV             .m3                                        :(RT)    (Borehole)              (6in)                   Integrated Cement Volume
IHV             .m3                                        :(RT)    (Borehole)              (6in)                   Integrated Hole Volume
RB              .deg                                       :        (PPC-B)                 (6in)                   Relative Bearing
RD1             .in                                        :        (PPC-B)                 (6in)                   Radius 1
RD2             .in                                        :        (PPC-B)                 (6in)                   Radius 2
RD3             .in                                        :        (PPC-B)                 (6in)                   Radius 3
RD4             .in                                        :        (PPC-B)                 (6in)                   Radius 4
#-------------------------------------------------------------
#            DEPT           GR           BS         TENS           SP         AT90         AT20         AT10         TENS         AT30         AT60        HAZIM          FCD          HD2 DeviationDEVI          HD1          ICV          IHV           RB          RD1          RD2          RD3          RD4 
#                      (SGT-N)   (Borehole)  (WLWorkflo)      (AIT-M)      (AIT-M)      (AIT-M)      (AIT-M)  (WLWorkflo)      (AIT-M)      (AIT-M)  (GPIT-C[1])   (Borehole)      (PPC-B)  (GPIT-C[1])      (PPC-B)   (Borehole)   (Borehole)      (PPC-B)      (PPC-B)      (PPC-B)      (PPC-B)      (PPC-B) 
#                                      (RT)                                                                                                                              (RT)                                                (RT)         (RT)                                                                  
#                        (6in)        (6in)        (6in)        (6in)        (3in)        (3in)        (3in)        (1in)        (3in)        (3in)        (6in)        (6in)        (6in)        (6in)        (6in)        (6in)        (6in)        (6in)        (6in)        (6in)        (6in)        (6in) 
~ASCII
# ...
       2617.62240     56.26010     17.50000   3272.11215     83.99306      0.80549      0.85807      0.89578   3285.00045      0.83849      0.82451    157.48570     13.37500     18.38649      8.47426     18.59902     32.24822     69.00817    193.52110      9.10585      9.31547      9.49317      9.07102
       2617.77480     53.56436     17.50000   3263.11080     83.63194      0.80787      0.86137      0.91045   3262.00025      0.84382      0.82857    157.49030     13.37500     18.41646      8.47780     18.59902     32.23562     68.98175    193.52110      9.10585      9.34544      9.49317      9.07102
       2617.92720     49.06247     17.50000   3254.88954     85.86111      0.82056      0.87073      0.92306   3264.00104      0.85532      0.83852    157.47920     13.37500     18.41646      8.48319     18.59902     32.22297     68.95530    193.52110      9.10585      9.34544      9.49317      9.07102
       2618.07960     47.84939     17.50000   3262.55552     86.64584      0.83135      0.87343      0.94172   3271.99975      0.85664      0.84348    157.45670     13.37500     18.32787      8.48652     18.62776     32.21033     68.92884    193.52110      9.13460      9.28548      9.49317      9.04239
       2618.23200     49.19726     17.50000   3236.00109     84.61111      0.84573      0.88027      0.94848   3242.99939      0.86417      0.85178    157.42660     13.37500     18.35785      8.47745     18.59902     32.19777     68.90247    193.52110      9.10585      9.31547      9.49317      9.04239
       2618.38440     46.50152     17.50000   3248.11155     85.72656      0.85701      0.88469      0.93426   3252.49982      0.86650      0.85580    157.34250     13.37500     18.38649      8.46454     18.59902     32.18521     68.87609    193.52110      9.10585      9.31547      9.49317      9.07102
       2618.53680     42.86227     17.50000   3231.62406     83.75694      0.86418      0.88054      0.92589   3228.49922      0.86991      0.86392    157.27980     13.37500     18.35785      8.44790     18.59902     32.17261     68.84968    193.52110      9.10585      9.31547      9.49317      9.04239
       2618.68920     44.47972     17.50000   3235.66613     79.10416      0.87152      0.88037      0.90957   3238.50097      0.87262      0.87025    157.24980     13.37500     18.38513      8.43789     18.62776     32.16005     68.82331    193.52110      9.13460      9.28548      9.49317      9.09965
       2618.84160     50.67992     17.50000   3245.11035     80.15972      0.88231      0.89322      0.91525   3243.99979      0.87843      0.88158    157.22060     13.37500     18.50367      8.42438     18.59830     32.14741     68.79687    193.52110      9.13460      9.37541      9.46371      9.12826
       2618.99400     52.83651     17.50000   3238.22220     79.98611      0.88049      0.89383      0.91771   3230.99909      0.87568      0.87866    157.22430     13.37500     18.53362      8.41032     18.59902     32.13464     68.77029    193.52110      9.10585      9.40536      9.49317      9.12826
       2619.14640     50.67992     17.50000   3262.33296     82.27084      0.88992      0.88676      0.92250   3260.99985      0.88520      0.88648    157.23740     13.37500     18.53362      8.40198     18.65720     32.12183     68.74366    193.52110      9.13460      9.40536      9.52261      9.12826
       2619.29880     49.00856     17.50000   3264.22136     82.00000      0.87696      0.88307      0.93323   3258.99905      0.87302      0.88250    157.32780     13.37500     18.56222      8.38427     18.62846     32.10893     68.71695    193.52110      9.10585      9.40536      9.52261      9.15686
       2619.45120     48.73899     17.50000   3264.00104     83.37500      0.89890      0.89088      0.94472   3259.99945      0.88483      0.89193    157.34470     13.37500     18.53362      8.37564     18.65720     32.09603     68.69023    193.52110      9.13460      9.40536      9.52261      9.12826
       2619.60360     52.24345     17.50000   3269.74941     85.65972      0.92220      0.90703      0.95109   3270.99935      0.90210      0.91266    157.42670     13.37500     18.53362      8.36846     18.62776     32.08314     68.66352    193.52110      9.13460      9.40536      9.49317      9.12826
       2619.75600     52.29736     17.50000   3259.66673     85.31944      0.95940      0.93438      0.95332   3251.00034      0.92640      0.94073    157.48260     13.37500     18.70783      8.35718     18.65650     32.07028     68.63685    193.52110      9.16334      9.46523      9.49317      9.24259
       2619.90840     53.10609     17.50000   3266.22216     85.08334      0.98623      0.96216      0.97344   3281.00110      0.95582      0.98008    157.53870     13.37500     18.73775      8.34580     18.68594     32.05714     68.60989    193.52110      9.16334      9.49515      9.52261      9.24259
       2620.06080     53.64523     17.50000   3256.66778     84.84028      1.02930      0.98168      1.00364   3258.99905      0.97650      1.01535    157.63530     13.37500     18.73775      8.32164     18.77353     32.04391     68.58284    193.52110      9.19206      9.49515      9.58146      9.24259
       2620.21320     56.01748     17.50000   3259.11145     86.38889      1.06326      1.00908      1.02883   3258.00089      1.01674      1.04478    157.67350     13.37500     18.70783      8.30089     18.80224     32.03055     68.55566    193.52110      9.22078      9.46523      9.58146      9.24259
       2620.36560     54.66961     17.50000   3266.77744     86.37500      1.14250      1.08894      1.11969   3269.99895      1.08675      1.11998    157.67200     13.37500     18.76765      8.29374     18.80224     32.01719     68.52850    193.52110      9.22078      9.52506      9.58146      9.24259
       2620.51800     55.47834     17.50000   3265.44432     85.27344      1.24548      1.18536      1.23430   3265.99960      1.18897      1.22704    157.64950     13.37500     18.73775      8.27785     18.80224     32.00375     68.50124    193.52110      9.22078      9.49515      9.58146      9.24259
       2620.67040     50.94949     17.50000   3243.55467     86.38194      1.28150      1.21455      1.28011   3248.99954      1.21601      1.25263    157.64420     13.37500     18.73775      8.26873     18.77282     31.99035     68.47403    193.52110      9.22078      9.49515      9.55205      9.24259
       2620.82280     52.99826     17.50000   3246.25013     85.79861      1.33297      1.23724      1.28268   3247.99914      1.24694      1.29103    157.59840     13.37500     18.70783      8.26277     18.83094     31.97700     68.44686    193.52110      9.24947      9.46523      9.58146      9.24259
       2620.97520     47.60678     17.50000   3240.33316     87.02778      1.35478      1.25866      1.28690   3230.99909      1.27744      1.32468    157.52900     13.37500     18.70783      8.25611     18.80224     31.96360     68.41965    193.52110      9.22078      9.46523      9.58146      9.24259
       2621.12760     47.06763     17.50000   3249.99994     86.70139      1.38973      1.32697      1.34407   3249.99994      1.31879      1.35967    157.47600     13.37500     18.73775      8.25878     18.80224     31.95024     68.39248    193.52110      9.22078      9.49515      9.58146      9.24259
       2621.28000     49.87119     17.50000   3259.99945     87.81944      1.50528      1.39859      1.40163   3260.99985      1.41310      1.47514    157.45880     13.37500     18.73775      8.26080     18.71467     31.93685     68.36526    193.52110      9.19206      9.49515      9.52261      9.24259
       2621.43240     53.53740     17.50000   3240.33316     86.89584      1.50570      1.42464      1.41546   3224.99894      1.42973      1.48435    157.42590     13.37500     18.73775      8.26640     18.71467     31.92357     68.33818    193.52110      9.19206      9.49515      9.52261      9.24259
       2621.58480     52.99826     17.50000   3229.33326     87.93056      1.49501      1.38911      1.40728   3229.00054      1.42164      1.47485    157.39040     13.37500     18.70783      8.27075     18.74339     31.91030     68.31110    193.52110      9.22078      9.46523      9.52261      9.24259
