~VERSION INFORMATION 
VERS  .    2.0                                     :CWLS Log ASCII Standard - VERSION 2.0
WRAP  .    NO                                      :One Line per Depth step
PROD  .    Schlumberger Technology Corp.           :LAS Producer
PROG  .    Horizon LASWriter 7.3.92069.3100        :LAS Program name and version
SOURCE.    1A-Log[6]/Up                            :Run&Pass Information
CREA  .    04/30/2018                              :LAS Creation date {MM/DD/YYYY}
#--------------------------------------------------
~WELL INFORMATION 
#MNEM           .UNIT                      DATA            :DESCRIPTION
#----            ------          --------------            -----------------------------
STRT            .m                    979.93200            :START DEPTH
STOP            .m                   3037.94160            :STOP DEPTH
STEP            .m                       0.1524            :STEP
NULL            .                       -999.25            :NULL VALUE
COMP            .                PETROLEOS MEXICANOS       :COMPANY
WELL            .                  MADREFIL 131            :WELL NAME
FLD             .                      MADREFIL            :FIELD NAME
RIGN            .                                          :Rig Name
RIGTYP          .                                          :Rig Type
SON             .                                          :Service Order Number
SRVC            .                  Schlumberger            :SERVICE COMPANY
DATE            .                    04/30/2018            :LOG DATE(Composite Date for Composite LAP) (MM/DD/YYYY)
CLAB            .                       County:            :County Label
CNTY            .                      VERACRUZ            :COUNTY
SLAB            .                       Equipo:            :State/Province Label
STAT            .                      ICMA-879            :STATE or PROVINCE
PROV            .                      ICMA-879            :STATE or PROVINCE
CTRY            .                                          :COUNTRY
CONT_REGION     .                                          :Continent Region
SECT            .                                          :Section
TOWN            .                                          :Township
RANG            .                                          :Range
API             .                                          :API NUMBER
UWI             .                                          :UNIQUE WELL ID
LUL             .                                          :Logging Unit Location
LUN             .                                          :Logging Unit Number
LOC             .                PERA MADREFIL-61          :FIELD LOCATION
FL1             .                                          :Field Location Line 1
FL2             .                                          :Field Location Line 2
LATI            .deg             18° 10' 19.542" N         :LATITUDE
LONG            .deg             93° 20' 3.618" W          :LONGITUDE
PDAT            .                            GL            :Local Permanent Datum
LMF             .                            DF            :Logging Measured From
APD             .m                        12.00            :Elevation of Depth Reference (LMF) Above Permanent Datum
EPD             .m                        20.01            :Elevation of Permanent Datum (PDAT) above Mean Sea Level
EKB             .m                      -999.25            :Elevation of Kelly Bushing Above Permanent Datum
EDF             .m                        12.00            :Elevation of Drill Floor Above Permanent Datum
EGL             .m                         0.00            :Elevation of Ground Level Above Permanent Datum
ECF             .m                      -999.25            :Elevation of Casing Flange above Permanent Datum
#--------------------------------------------------
~CURVE INFORMATION
#MNEM           .UNIT                  API CODE            :DESCRIPTION
#----            ------          --------------            -----------------------------
DEPT            .m                                         :                                                        Depth Index
GR              .gAPI                                      :        (SGT-N)                 (6in)                   Calibrated Gamma Ray
BS              .in                                        :(RT)    (Borehole)              (6in)                   Bit Size
TENS            .lbf                                       :        (WLWorkflow)            (6in)                   Cable Tension
SP              .mV                                        :        (AIT-M)                 (6in)                   Spontaneous Potential
AT90            .ohm.m                                     :        (AIT-M)                 (3in)                   Array Induction Two Foot Resistivity A90
AT20            .ohm.m                                     :        (AIT-M)                 (3in)                   Array Induction Two Foot Resistivity A20
AT10            .ohm.m                                     :        (AIT-M)                 (3in)                   Array Induction Two Foot Resistivity A10
TENS            .lbf                                       :        (WLWorkflow)            (1in)                   Cable Tension
AT30            .ohm.m                                     :        (AIT-M)                 (3in)                   Array Induction Two Foot Resistivity A30
AT60            .ohm.m                                     :        (AIT-M)                 (3in)                   Array Induction Two Foot Resistivity A60
HAZIM           .deg                                       :        (GPIT-C[1])             (6in)                   Memorized Hole Azimuth
FCD             .in                                        :(RT)    (Borehole)              (6in)                   Future Casing Diameter
HD2             .in                                        :        (PPC-B)                 (6in)                   Hole Diameter 2
DeviationDEVI   .deg                                       :        (GPIT-C[1])             (6in)                   Memorized Sonde Deviation
HD1             .in                                        :        (PPC-B)                 (6in)                   Hole Diameter 1
ICV             .m3                                        :(RT)    (Borehole)              (6in)                   Integrated Cement Volume
IHV             .m3                                        :(RT)    (Borehole)              (6in)                   Integrated Hole Volume
RB              .deg                                       :        (PPC-B)                 (6in)                   Relative Bearing
RD1             .in                                        :        (PPC-B)                 (6in)                   Radius 1
RD2             .in                                        :        (PPC-B)                 (6in)                   Radius 2
RD3             .in                                        :        (PPC-B)                 (6in)                   Radius 3
RD4             .in                                        :        (PPC-B)                 (6in)                   Radius 4
#-------------------------------------------------------------
#            DEPT           GR           BS         TENS           SP         AT90         AT20         AT10         TENS         AT30         AT60        HAZIM          FCD          HD2 DeviationDEVI          HD1          ICV          IHV           RB          RD1          RD2          RD3          RD4 
#                      (SGT-N)   (Borehole)  (WLWorkflo)      (AIT-M)      (AIT-M)      (AIT-M)      (AIT-M)  (WLWorkflo)      (AIT-M)      (AIT-M)  (GPIT-C[1])   (Borehole)      (PPC-B)  (GPIT-C[1])      (PPC-B)   (Borehole)   (Borehole)      (PPC-B)      (PPC-B)      (PPC-B)      (PPC-B)      (PPC-B) 
#                                      (RT)                                                                                                                              (RT)                                                (RT)         (RT)                                                                  
#                        (6in)        (6in)        (6in)        (6in)        (3in)        (3in)        (3in)        (1in)        (3in)        (3in)        (6in)        (6in)        (6in)        (6in)        (6in)        (6in)        (6in)        (6in)        (6in)        (6in)        (6in)        (6in) 
~ASCII
# ...
       1934.56560     40.70568     17.50000   2553.49912     90.04166      0.37172      0.38204      0.37504   2555.49992      0.38015      0.36250    240.51180     13.37500     17.94779      0.75654     17.77924     87.92264    186.59770    193.17070      8.84727      9.01761      8.93197      8.93018
       1934.71800     43.40142     17.50000   2556.11140     89.47916      0.33797      0.34796      0.34678   2555.00085      0.34626      0.32713    239.78270     13.37500     17.94779      0.75574     17.74957     87.91181    186.57310    193.50840      8.84727      9.01761      8.90230      8.93018
       1934.87040     42.72749     17.50000   2559.11036     89.40972      0.30703      0.32356      0.32494   2555.99900      0.31889      0.29828    239.31610     13.37500     17.97644      0.75761     17.74957     87.90103    186.54850    193.50840      8.84727      9.01761      8.90230      8.95883
       1935.02280     37.33601     17.50000   2567.33387     90.51563      0.28029      0.30299      0.30855   2568.99970      0.29576      0.27315    238.05110     13.37500     17.94779      0.75396     17.74957     87.89021    186.52380    193.52110      8.84727      9.01761      8.90230      8.93018
       1935.17520     34.64027     17.50000   2570.22266     90.47916      0.26510      0.28588      0.28990   2573.99945      0.27741      0.25860    237.52770     13.37500     17.94779      0.75497     17.77841     87.87942    186.49930    193.17070      8.87610      9.01761      8.90230      8.93018
       1935.32760     38.00994     17.50000   2555.37403     90.31250      0.25533      0.27554      0.27975   2549.00070      0.26691      0.24920    236.74270     13.37500     17.91270      0.75133     17.80757     87.86859    186.47460    193.18310      8.84656      8.98496      8.96101      8.92774
       1935.48000     40.70568     17.50000   2551.99965     89.18056      0.24945      0.26990      0.27352   2551.99965      0.25952      0.24252    236.07870     13.37500     17.97644      0.75033     17.77841     87.85777    186.45000    193.50840      8.87610      9.01761      8.90230      8.95883
       1935.63240     40.43611     17.50000   2544.33366     87.10416      0.24480      0.26527      0.27345   2544.00095      0.25374      0.23851    235.32230     13.37500     17.94779      0.74976     17.83772     87.84691    186.42530    193.52110      8.87610      9.01761      8.96162      8.93018
       1935.78480     40.22045     17.50000   2551.66693     89.31250      0.24291      0.26261      0.27169   2554.00045      0.24978      0.23614    234.45420     13.37500     17.97644      0.74836     17.74957     87.83601    186.40060    193.50840      8.84727      9.01761      8.90230      8.95883
       1935.93720     38.60300     17.50000   2540.50067     87.43750      0.24416      0.26521      0.27679   2538.00080      0.25084      0.23751    232.78330     13.37500     17.97644      0.74840     17.74957     87.82518    186.37590    193.18310      8.84727      9.01761      8.90230      8.95883
       1936.08960     37.25513     17.50000   2548.44542     88.52084      0.24681      0.26831      0.28179   2539.99935      0.25225      0.24113    232.06100     13.37500     17.94280      0.74876     17.77789     87.81435    186.35130    193.17070      8.84656      9.01507      8.93133      8.92774
       1936.24200     35.58377     17.50000   2539.66663     88.47916      0.24726      0.26665      0.28504   2533.99920      0.24984      0.24037    231.34970     13.37500     17.97644      0.75094     17.74957     87.80354    186.32660    193.50840      8.84727      9.01761      8.90230      8.95883
       1936.39440     34.50547     17.50000   2548.66573     88.54166      0.24324      0.25971      0.27959   2544.99910      0.24496      0.23656    230.60910     13.37500     17.97644      0.75266     17.77841     87.79271    186.30200    193.50840      8.87610      9.01761      8.90230      8.95883
       1936.54680     38.00994     17.50000   2543.11070     87.95313      0.24514      0.25757      0.27635   2539.00120      0.24374      0.23916    229.94440     13.37500     17.91913      0.75182     17.86654     87.78185    186.27730    193.50840      8.90492      9.01761      8.96162      8.90152
       1936.69920     41.62223     17.50000   2541.37518     87.76389      0.26277      0.27822      0.29253   2540.50067      0.26235      0.25811    228.54370     13.37500     17.97644      0.75262     17.80889     87.77094    186.25260    193.50840      8.84727      9.01761      8.96162      8.95883
       1936.85160     44.31797     17.50000   2533.11120     86.20834      0.28776      0.30400      0.32126   2532.00065      0.28670      0.28356    228.15300     13.37500     17.97644      0.75260     17.92499     87.76003    186.22790    193.17070      8.93372      9.01761      8.99126      8.95883
       1937.00400     43.77882     17.50000   2536.33271     85.19444      0.30131      0.32068      0.34898   2544.00095      0.30056      0.30022    227.48050     13.37500     17.97148      0.75100     17.86528     87.74895    186.20300    193.52110      8.90427      9.01507      8.96101      8.95641
       1937.15640     42.32312     17.50000   2554.11060     84.79688      0.31814      0.33531      0.36382   2565.00035      0.31800      0.32042    227.33420     13.37500     17.97644      0.75140     17.89535     87.73798    186.17820    193.17070      8.93372      9.01761      8.96162      8.95883
       1937.30880     43.40142     17.50000   2554.22301     85.09722      0.33399      0.34441      0.38233   2553.00005      0.33097      0.33785    227.05890     13.37500     17.97644      0.75059     17.89535     87.72694    186.15340    193.17070      8.93372      9.01761      8.96162      8.95883
       1937.46120     46.09716     17.50000   2557.62437     85.18056      0.36329      0.37182      0.39579   2561.99915      0.35791      0.37028    226.79000     13.37500     17.94280      0.75108     17.86528     87.71592    186.12850    193.50840      8.90427      9.01507      8.96101      8.92774
       1937.61360     47.44503     17.50000   2554.22301     86.13889      0.42804      0.42678      0.46254   2561.99915      0.41684      0.43622    226.41220     13.37500     17.97644      0.75189     17.89535     87.70498    186.10380    193.50840      8.93372      9.01761      8.96162      8.95883
       1937.76600     44.45275     17.50000   2554.44557     85.20139      0.50586      0.50430      0.53565   2553.00005      0.49685      0.52564    226.03330     13.37500     18.00015      0.75014     17.89494     87.69395    186.07890    193.50840      8.90427      9.01507      8.99068      8.98508
       1937.91840     41.21787     17.50000   2567.88914     86.21094      0.55676      0.53730      0.62825   2573.99945      0.53513      0.57047    225.54610     13.37500     17.97644      0.74788     17.95462     87.68288    186.05400    193.52110      8.93372      9.01761      9.02089      8.95883
       1938.07080     41.21787     17.50000   2556.12489     85.15972      0.62362      0.57772      0.67321   2550.50017      0.58982      0.63687    224.77540     13.37500     18.00651      0.74643     17.86654     87.67177    186.02910    193.50840      8.90492      9.04767      8.96162      8.95883
       1938.22320     43.67099     17.50000   2557.66708     82.66666      0.69908      0.63247      0.72631   2546.99990      0.64888      0.71188    224.12320     13.37500     17.97644      0.74220     17.95462     87.66074    186.00430    193.52110      8.93372      9.01761      9.02089      8.95883
       1938.37560     47.44503     17.50000   2555.66628     82.25000      0.77670      0.68392      0.75305   2550.99925      0.71004      0.78103    223.33840     13.37500     17.97644      0.74023     17.92581     87.64964    185.97930    193.50840      8.90492      9.01761      9.02089      8.95883
       1938.52800     50.94949     17.50000   2555.00085     83.93750      0.83985      0.70795      0.76488   2543.00055      0.73987      0.82756    222.12040     13.37500     18.00651      0.73538     17.95462     87.63857    185.95450    193.50840      8.93372      9.04767      9.02089      8.95883
