~VERSION INFORMATION 
VERS  .    2.0                                     :CWLS Log ASCII Standard - VERSION 2.0
WRAP  .    NO                                      :One Line per Depth step
PROD  .    Schlumberger Technology Corp.           :LAS Producer
PROG  .    Horizon LASWriter 7.3.92069.3100        :LAS Program name and version
SOURCE.    1A-Log[6]/Up                            :Run&Pass Information
CREA  .    04/30/2018                              :LAS Creation date {MM/DD/YYYY}
#--------------------------------------------------
~WELL INFORMATION 
#MNEM           .UNIT                      DATA            :DESCRIPTION
#----            ------          --------------            -----------------------------
STRT            .m                    979.93200            :START DEPTH
STOP            .m                   3037.94160            :STOP DEPTH
STEP            .m                       0.1524            :STEP
NULL            .                       -999.25            :NULL VALUE
COMP            .                PETROLEOS MEXICANOS       :COMPANY
WELL            .                  MADREFIL 131            :WELL NAME
FLD             .                      MADREFIL            :FIELD NAME
RIGN            .                                          :Rig Name
RIGTYP          .                                          :Rig Type
SON             .                                          :Service Order Number
SRVC            .                  Schlumberger            :SERVICE COMPANY
DATE            .                    04/30/2018            :LOG DATE(Composite Date for Composite LAP) (MM/DD/YYYY)
CLAB            .                       County:            :County Label
CNTY            .                      VERACRUZ            :COUNTY
SLAB            .                       Equipo:            :State/Province Label
STAT            .                      ICMA-879            :STATE or PROVINCE
PROV            .                      ICMA-879            :STATE or PROVINCE
CTRY            .                                          :COUNTRY
CONT_REGION     .                                          :Continent Region
SECT            .                                          :Section
TOWN            .                                          :Township
RANG            .                                          :Range
API             .                                          :API NUMBER
UWI             .                                          :UNIQUE WELL ID
LUL             .                                          :Logging Unit Location
LUN             .                                          :Logging Unit Number
LOC             .                PERA MADREFIL-61          :FIELD LOCATION
FL1             .                                          :Field Location Line 1
FL2             .                                          :Field Location Line 2
LATI            .deg             18° 10' 19.542" N         :LATITUDE
LONG            .deg             93° 20' 3.618" W          :LONGITUDE
PDAT            .                            GL            :Local Permanent Datum
LMF             .                            DF            :Logging Measured From
APD             .m                        12.00            :Elevation of Depth Reference (LMF) Above Permanent Datum
EPD             .m                        20.01            :Elevation of Permanent Datum (PDAT) above Mean Sea Level
EKB             .m                      -999.25            :Elevation of Kelly Bushing Above Permanent Datum
EDF             .m                        12.00            :Elevation of Drill Floor Above Permanent Datum
EGL             .m                         0.00            :Elevation of Ground Level Above Permanent Datum
ECF             .m                      -999.25            :Elevation of Casing Flange above Permanent Datum
#--------------------------------------------------
~CURVE INFORMATION
#MNEM           .UNIT                  API CODE            :DESCRIPTION
#----            ------          --------------            -----------------------------
DEPT            .m                                         :                                                        Depth Index
GR              .gAPI                                      :        (SGT-N)                 (6in)                   Calibrated Gamma Ray
BS              .in                                        :(RT)    (Borehole)              (6in)                   Bit Size
TENS            .lbf                                       :        (WLWorkflow)            (6in)                   Cable Tension
SP              .mV                                        :        (AIT-M)                 (6in)                   Spontaneous Potential
AT90            .ohm.m                                     :        (AIT-M)                 (3in)                   Array Induction Two Foot Resistivity A90
AT20            .ohm.m                                     :        (AIT-M)                 (3in)                   Array Induction Two Foot Resistivity A20
AT10            .ohm.m                                     :        (AIT-M)                 (3in)                   Array Induction Two Foot Resistivity A10
TENS            .lbf                                       :        (WLWorkflow)            (1in)                   Cable Tension
AT30            .ohm.m                                     :        (AIT-M)                 (3in)                   Array Induction Two Foot Resistivity A30
AT60            .ohm.m                                     :        (AIT-M)                 (3in)                   Array Induction Two Foot Resistivity A60
HAZIM           .deg                                       :        (GPIT-C[1])             (6in)                   Memorized Hole Azimuth
FCD             .in                                        :(RT)    (Borehole)              (6in)                   Future Casing Diameter
HD2             .in                                        :        (PPC-B)                 (6in)                   Hole Diameter 2
DeviationDEVI   .deg                                       :        (GPIT-C[1])             (6in)                   Memorized Sonde Deviation
HD1             .in                                        :        (PPC-B)                 (6in)                   Hole Diameter 1
ICV             .m3                                        :(RT)    (Borehole)              (6in)                   Integrated Cement Volume
IHV             .m3                                        :(RT)    (Borehole)              (6in)                   Integrated Hole Volume
RB              .deg                                       :        (PPC-B)                 (6in)                   Relative Bearing
RD1             .in                                        :        (PPC-B)                 (6in)                   Radius 1
RD2             .in                                        :        (PPC-B)                 (6in)                   Radius 2
RD3             .in                                        :        (PPC-B)                 (6in)                   Radius 3
RD4             .in                                        :        (PPC-B)                 (6in)                   Radius 4
#-------------------------------------------------------------
#            DEPT           GR           BS         TENS           SP         AT90         AT20         AT10         TENS         AT30         AT60        HAZIM          FCD          HD2 DeviationDEVI          HD1          ICV          IHV           RB          RD1          RD2          RD3          RD4 
#                      (SGT-N)   (Borehole)  (WLWorkflo)      (AIT-M)      (AIT-M)      (AIT-M)      (AIT-M)  (WLWorkflo)      (AIT-M)      (AIT-M)  (GPIT-C[1])   (Borehole)      (PPC-B)  (GPIT-C[1])      (PPC-B)   (Borehole)   (Borehole)      (PPC-B)      (PPC-B)      (PPC-B)      (PPC-B)      (PPC-B) 
#                                      (RT)                                                                                                                              (RT)                                                (RT)         (RT)                                                                  
#                        (6in)        (6in)        (6in)        (6in)        (3in)        (3in)        (3in)        (1in)        (3in)        (3in)        (6in)        (6in)        (6in)        (6in)        (6in)        (6in)        (6in)        (6in)        (6in)        (6in)        (6in)        (6in) 
~ASCII
# ...
       2074.46880     48.87377     17.50000   2662.88891     79.05469      0.99575      0.87807      0.86980   2656.00076      0.91524      0.94702     90.77201     13.37500     18.32832      0.21970     18.24560     77.68739    163.68160    193.50840      9.10631      9.19781      9.13929      9.13051
       2074.62120     48.60420     17.50000   2673.55609     79.67361      0.99165      0.86963      0.85967   2668.99922      0.91049      0.93696     90.05962     13.37500     18.29510      0.21857     18.21593     77.67538    163.65580    193.52110      9.07709      9.19545      9.13884      9.09965
       2074.77360     45.36931     17.50000   2688.75093     79.56944      0.98949      0.86658      0.85015   2680.99952      0.90779      0.93487     89.13615     13.37500     18.21113      0.21884     18.10018     77.66347    163.63000    193.50840      9.02007      9.13780      9.08011      9.07333
       2074.92600     46.09716     17.50000   2703.88956     78.91666      1.00000      0.88279      0.85520   2702.99932      0.91863      0.94423     88.16324     13.37500     18.17775      0.21779     18.09914     77.65182    163.60460    193.52110      9.01953      9.13537      9.07961      9.04239
       2075.07840     42.05355     17.50000   2688.44519     78.65278      1.00633      0.90004      0.87080   2686.99967      0.93418      0.95188     87.02026     13.37500     18.17775      0.21815     18.06951     77.64023    163.57920    193.50840      9.01953      9.13537      9.04998      9.04239
       2075.23080     42.59270     17.50000   2683.22288     80.52778      0.95296      0.85142      0.84198   2681.99992      0.88300      0.90192     85.55161     13.37500     18.17775      0.21729     18.07034     77.62868    163.55380    193.52110      8.99073      9.13537      9.07961      9.04239
       2075.38320     41.86485     17.50000   2677.66785     80.68056      0.88004      0.78624      0.78529   2680.99952      0.81412      0.83729     85.21094     13.37500     18.23972      0.21640     18.07057     77.61713    163.52840    193.50840      9.02007      9.13780      9.05051      9.10193
       2075.53560     46.98676     17.50000   2682.11232     81.00000      0.84828      0.76227      0.74861   2683.00032      0.79311      0.81060     84.45430     13.37500     18.17775      0.21525     18.09914     77.60549    163.50300    193.52110      9.01953      9.13537      9.07961      9.04239
       2075.68800     48.87377     17.50000   2673.37400     81.51389      0.82467      0.74382      0.73562   2673.49989      0.77028      0.79083     83.55187     13.37500     18.26974      0.21462     18.04096     77.59389    163.47760    193.50840      9.02007      9.16781      9.02089      9.10193
       2075.84040     53.37566     17.50000   2680.99952     81.48611      0.78790      0.72918      0.71988   2694.49929      0.74960      0.75547     81.39801     13.37500     18.21113      0.21204     18.21686     77.58225    163.45210    193.52110      9.07757      9.13780      9.13929      9.07333
       2075.99280     52.86347     17.50000   2669.88946     82.04861      0.73683      0.68904      0.69973   2668.50014      0.70616      0.70694     79.94424     13.37500     18.29974      0.21169     18.18728     77.57045    163.42650    193.50840      9.07757      9.19781      9.10971      9.10193
       2076.14520     49.35901     17.50000   2663.77690     82.97916      0.70850      0.65788      0.68060   2668.99922      0.67788      0.67893     78.61595     13.37500     18.26506      0.21024     18.21593     77.55856    163.40080    193.52110      9.07709      9.16542      9.13884      9.09965
       2076.29760     49.08943     17.50000   2667.77850     82.22222      0.67603      0.65142      0.65142   2673.99897      0.65457      0.65071     77.31561     13.37500     18.29510      0.20888     18.18633     77.54668    163.37510    193.52110      9.07709      9.19545      9.10924      9.09965
       2076.45000     47.14849     17.50000   2648.22237     82.07639      0.62092      0.59821      0.59240   2636.99991      0.60075      0.60203     76.23962     13.37500     18.23972      0.20714     18.18728     77.53481    163.34940    193.52110      9.07757      9.13780      9.10971      9.10193
       2076.60240     47.17545     17.50000   2655.66580     82.58594      0.56444      0.54515      0.53574   2652.99956      0.54723      0.54980     74.11103     13.37500     18.23644      0.20207     18.12877     77.52302    163.32380    193.50840      9.01953      9.16542      9.10924      9.07102
       2076.75480     42.59270     17.50000   2664.11187     82.26389      0.53739      0.52242      0.51534   2653.50089      0.51979      0.52571     73.53425     13.37500     18.18251      0.19974     18.10018     77.51130    163.29830    193.52110      9.02007      9.13780      9.08011      9.04472
       2076.90720     41.37962     17.50000   2666.24980     81.84722      0.56002      0.54324      0.54474   2661.49959      0.54252      0.54669     72.29746     13.37500     18.23644      0.19760     18.09914     77.49969    163.27290    193.50840      9.01953      9.16542      9.07961      9.07102
       2077.05960     45.39627     17.50000   2676.33248     80.77084      0.59741      0.57311      0.58038   2672.00041      0.57347      0.58772     71.02083     13.37500     18.26974      0.19867     18.15853     77.48802    163.24740    193.52110      9.04883      9.16781      9.10971      9.10193
       2077.21200     43.80578     17.50000   2668.44394     80.10416      0.62902      0.60738      0.62718   2664.99986      0.60823      0.62678     70.02979     13.37500     18.23972      0.19759     18.10018     77.47621    163.22180    193.50840      9.02007      9.13780      9.08011      9.10193
       2077.36440     44.23710     17.50000   2676.77760     80.71528      0.67403      0.64537      0.67534   2674.99937      0.65019      0.66441     68.24185     13.37500     18.23502      0.19704     18.18633     77.46453    163.19630    193.52110      9.07709      9.13537      9.10924      9.09965
       2077.51680     38.30647     17.50000   2687.33238     81.04688      0.73503      0.70179      0.72828   2691.99942      0.70915      0.72218     67.35754     13.37500     18.18251      0.19712     18.18811     77.45274    163.17070    193.50840      9.04883      9.13780      9.13929      9.04472
       2077.66920     41.70311     17.50000   2692.88966     82.30556      0.82536      0.77785      0.79145   2696.00102      0.78715      0.80980     66.87153     13.37500     18.26647      0.19690     18.18633     77.44101    163.14510    193.52110      9.07709      9.19545      9.10924      9.07102
       2077.82160     40.35523     17.50000   2709.12536     83.80556      0.88746      0.83876      0.84795   2718.00082      0.84707      0.87576     66.23717     13.37500     18.26974      0.19513     18.15853     77.42917    163.11950    193.52110      9.04883      9.16781      9.10971      9.10193
       2077.97400     43.48229     17.50000   2683.33303     85.34028      0.91611      0.86534      0.88569   2684.00072      0.86804      0.90415     65.00668     13.37500     18.29974      0.19364     18.21593     77.41736    163.09390    193.18310      9.07709      9.19781      9.13884      9.10193
       2078.12640     40.59785     17.50000   2689.22303     85.21528      0.92464      0.88170      0.89946   2696.00102      0.88727      0.92801     64.14409     13.37500     18.17775      0.19395     18.21593     77.40543    163.06810    193.52110      9.07709      9.13537      9.13884      9.04239
       2078.27880     42.97010     17.50000   2684.77855     81.24306      0.92902      0.89060      0.90896   2691.99942      0.89568      0.94510     63.74802     13.37500     18.14770      0.19326     18.21593     77.39368    163.04260    193.50840      9.07709      9.10531      9.13884      9.04239
       2078.43120     44.69537     17.50000   2678.33328     82.16666      0.94940      0.89957      0.91728   2681.99992      0.90551      0.95748     62.64149     13.37500     18.17775      0.19242     18.15670     77.38197    163.01700    193.52110      9.07709      9.13537      9.07961      9.04239
